SKOLENHETSKOD,English_avg_score,Math_avg_score,Swedish_avg_score,Swedish_as_a_second_language_avg_score,grand_avg_score,HUVUDMANNATYP,KOMMUNNAMN,SKOLENHETENS NAMN,BESÖKSADRESS,BESÖKSPOSTNR,BESÖKSPOSTORT,WEBB,FKLASS,lon,lat,Google_rating
10063280,14.125,9.833333333333334,12.308333333333332,,12.088888888888889,Enskild,Huddinge,Skapaskolan,Midsommarvägen 4,14144,Huddinge,http://www.skapaskolan.se,J,17.9604016,59.2336677,2.4
10225038,15.550000000000002,14.133333333333333,12.983333333333334,,14.222222222222223,Kommunal,Huddinge,Solfagraskolan,Prästvägen 23-25,14131,Huddinge,http://www.huddinge.se/solfagraskolan,J,18.0093278,59.23936579999999,3.8
10360193,15.549999999999999,12.6,15.700000000000001,,14.616666666666667,Enskild,Stockholm,Profilskolan,"Krossgatan 34, plan 4",16250,Vällingby,http://www.profilskolan.se,J,17.8567362,59.37235159999999,3.5
10661388,11.883333333333335,10.166666666666666,14.191666666666668,,12.080555555555556,Enskild,Södertälje,Örjanskolan grund,Nibble,15391,Järna,http://www.orjanskolan.se,J,17.6165051,59.0662909,3.8
10715898,16.333333333333332,13.200000000000001,14.9,,14.81111111111111,Enskild,Österåker,Akers Friskola,Svampvägen 4,18438,Åkersberga,http://www.akersfriskola.se,J,18.3323781,59.4916248,4.0
10998117,14.25,10.266666666666667,12.550000000000002,11.3,12.091666666666669,Kommunal,Sigtuna,Råbergsskolan,Nyborgsvägen 2 A,19571,Rosersberg,http://www.sigtuna.se/rabergsskolan,J,17.8904493,59.57986449999999,4.3
11018018,17.266666666666666,12.666666666666666,15.841666666666667,,15.258333333333333,Enskild,Stockholm,Pops Academy Östermalm,Valhallavägen 117 D/E,11531,Stockholm,https://www.popsacademy.se,N,18.0829139,59.3435183,4.1
11025388,14.616666666666667,13.666666666666666,13.200000000000001,,13.827777777777778,Kommunal,Ekerö,Stenhamraskolan,Herman Palms Plan 3,17960,Stenhamra,http://www.ekero.se/stenhamraskola,J,17.6880374,59.33548210000001,4.1
11364996,16.691666666666666,13.200000000000001,14.158333333333333,,14.683333333333332,Enskild,Värmdö,Lemshaga Akademi,Lemshagavägen 5-15,13461,Ingarö,http://www.lemshaga.se,J,18.4010831,59.3002611,4.2
11442396,12.5,9.266666666666666,11.0,8.787500000000001,10.388541666666667,Enskild,Stockholm,Stockholm International Academy Hägersten,Sulvägen 52,12640,Hägersten,http://www.mubarak.se,J,18.0074798,59.28439830000001,3.8
11496096,18.01666666666667,15.166666666666666,16.916666666666668,,16.700000000000003,Enskild,Nacka,Kunskapsskolan Saltsjöbaden,Observatoriebacken 1,13336,Saltsjöbaden,https://www.kunskapsskolan.se,N,18.3041145,59.271994,4.0
11777750,16.25,13.666666666666666,14.483333333333333,,14.799999999999999,Kommunal,Nacka,Saltsjöbadens samskola,Samskolevägen 1,13334,Saltsjöbaden,http://www.samskolan.org,J,18.2823796,59.27805559999999,2.4
11914814,14.283333333333331,11.0,12.424999999999999,8.325,11.508333333333333,Kommunal,Södertälje,Rosenborgskolan,Erik Dahlbergs väg 9,14185,Södertälje,http://www.sodertalje.se/rosenborgskolan,N,17.6365282,59.19800309999999,3.3
12092203,4.625,4.2,2.8,,3.875,Kommunal,Sollentuna,Brage- skola och språkförskola,Hertig Karls väg 5,19268,Sollentuna,http://www.talochsprakcentrum.se,J,17.9099571,59.47735900000001,3.7
12187987,16.25,14.233333333333334,15.1,,15.194444444444445,Kommunal,Stockholm,Katarina Södra skola,Katarina Bangata 41,11639,Stockholm,https://grundskola.stockholm/hitta-grundskola/grundskola/katarina-sodra-skola-f-6/,J,18.0833334,59.31104240000001,3.7
12332278,19.375,15.566666666666668,15.383333333333333,13.9,16.056250000000002,Enskild,Täby,Internationella Engelska Skolan Täby,Nytorpsvägen 7,18353,Täby,http://www.engelska.se,N,18.0764904,59.4355462,2.8
12407147,16.0,8.55,11.950000000000001,,12.166666666666666,Kommunal,Österåker,Röllingbyskolan ,Hackstavägen 31,18494,Åkersberga,http://www.osteraker.se,J,18.2989331,59.48723989999999,
12757193,16.150000000000002,13.633333333333333,14.433333333333332,11.65,13.966666666666667,Enskild,Södertälje,Vittra Östertälje,Gärtunavägen 4,15257,Södertälje,http://www.vittra.se/sodertalje,J,17.6677034,59.1801987,4.1
13124830,15.083333333333334,10.766666666666666,12.525,10.3625,12.184375,Kommunal,Stockholm,Sjöängsskolan,Gripsholmsvägen 29,12535,Älvsjö,https://grundskola.stockholm/hitta-grundskola/grundskola/sjoangsskolan-f-9/,J,18.0277711,59.28037029999999,3.6
13654969,15.475,13.4,12.858333333333334,,13.911111111111111,Kommunal,Huddinge,Balingsnässkolan,Lännavägen 80,14134,Huddinge,http://www.huddinge.se/balingsnasskolan,J,18.006904,59.22083949999999,3.0
13665610,15.783333333333333,14.566666666666668,14.549999999999999,,14.966666666666667,Kommunal,Täby,Brinkskolan,Vallabrinksgränd 6,18750,Täby,http://www.taby.se/Brinkskolan,J,18.0470403,59.45933689999999,3.4
13679897,14.883333333333335,10.366666666666667,13.074999999999998,9.7,12.006249999999998,Kommunal,Stockholm,Bagarmossens skola,Rusthållarvägen 5,12841,Bagarmossen,https://grundskola.stockholm/hitta-grundskola/grundskola/bagarmossens-skola-f-9/,J,18.1279897,59.2799893,3.1
14040970,13.766666666666667,12.533333333333333,12.375,8.625,11.825,Kommunal,Nacka,Stavsborgsskolan,Flädervägen 4,13830,Älta,http://www.stavsborg.nacka.se,J,18.1733724,59.25600230000001,2.8
14121892,13.783333333333331,11.333333333333334,,10.174999999999999,11.763888888888888,Kommunal,Stockholm,Bredängsskolan,BredängsTorg 21,12732,Skärholmen,https://grundskola.stockholm/hitta-grundskola/grundskola/bredangsskolan-f-9/,J,17.9342386,59.2941464,2.3
14440920,14.066666666666668,12.299999999999999,12.216666666666669,7.65,11.558333333333334,Kommunal,Huddinge,Visättraskolan,Visättravägen 61-63,14135,Huddinge,http://www.huddinge.se/visattraskolan,J,17.9488271,59.2158262,4.5
14472068,14.824999999999998,11.133333333333333,13.358333333333333,,13.105555555555554,Enskild,Stockholm,Kristna skolan,"Petrejusvägen 42, entré A1",12138,Johanneshov,http://www.kristnaskolan.se,J,18.1002342,59.29648329999999,4.9
14479858,15.475,14.0,14.283333333333333,,14.58611111111111,Kommunal,Stockholm,Tallkrogens skola,Torögatan 59-65,12265,Enskede,https://grundskola.stockholm/hitta-grundskola/grundskola/tallkrogens-skola-f-6/,J,18.0762197,59.27316629999999,3.3
15049834,15.266666666666666,13.266666666666666,13.975,10.850000000000001,13.339583333333334,Kommunal,Sundbyberg,Lilla Alby skola,Humblegatan 19-23,17239,Sundbyberg,http://www.sundbyberg.se/lillaalbyskola,J,17.9683819,59.35849339999999,4.2
15080815,15.116666666666667,11.066666666666668,13.050000000000002,12.5,12.933333333333335,Kommunal,Järfälla,Fjällenskolan,Ekollongränd 1,17549,Järfälla,http://www.jarfalla.se,J,17.7936122,59.4029442,3.1
15218794,13.241666666666667,9.866666666666665,13.225,9.200000000000001,11.383333333333335,Kommunal,Huddinge,Glömstaskolan,Bergavägen 9,14132,Huddinge,https://www.huddinge.se/glomstaskolan,J,17.935496,59.2360408,2.6
15312030,14.925,10.5,,,12.7125,Kommunal,Norrtälje,Wigulfskolan,Lommarvägen 43,76152,Norrtälje,http://www.norrtalje.se,J,18.6722983,59.76231899999999,4.0
15331669,16.191666666666666,14.199999999999998,14.766666666666666,,15.052777777777777,Kommunal,Stockholm,Sjöstadsskolan,Hammarby Allé 74-76,12064,Stockholm,https://grundskola.stockholm/hitta-grundskola/grundskola/sjostadsskolan-f-9/,J,18.0966209,59.3036706,3.6
15339442,16.125,13.600000000000001,14.0125,,14.579166666666666,Kommunal,Sollentuna,Runbackaskolan,Kornettvägen 42,19273,Sollentuna,http://www.sollentuna.se/sv/uweb/runbacka-skolor/,J,17.8943936,59.4565369,4.1
15483394,14.958333333333334,12.866666666666665,13.425000000000002,,13.75,Kommunal,Huddinge,Segeltorpsskolan,Chronas väg 12,14147,Segeltorp,http://www.huddinge.se/segeltorpsskolan,N,17.9440887,59.2781388,3.1
15547680,16.525,15.75,14.475000000000001,,15.583333333333334,Enskild,Sollentuna,Vibyskolan,Kornettvägen 44,19273,Sollentuna,http://www.vibyskolan.se,J,17.8904515,59.4584018,3.6
15594566,17.474999999999998,15.9,16.183333333333334,,16.519444444444446,Kommunal,Stockholm,Äppelviksskolan,Alviksvägen 97,16753,Bromma,https://grundskola.stockholm/hitta-grundskola/grundskola/appelviksskolan-6-9/,N,17.9753001,59.3234513,4.0
15697742,14.775,13.1,13.450000000000001,,13.775,Kommunal,Sigtuna,Galaxskolan,Uranusgatan 2,19556,Märsta,http://www.sigtuna.se/galaxskolan,J,17.8117782,59.61220579999999,1.8
16061350,8.875,12.7,,7.0,9.525,Enskild,Stockholm,Apolloniaskolan,Stora Mans Väg 11B,12559,Älvsjö,http://www.betaschool.eu,J,17.9753307,59.280785,3.6
16068461,15.441666666666668,12.366666666666667,13.299999999999999,,13.702777777777778,Enskild,Södertälje,Nyckelskolan,Ekensbergsgatan 34,15243,Södertälje,http://www.knippan.se,J,17.6398893,59.2064022,3.5
16348406,16.675,13.300000000000002,14.65,,14.875,Kommunal,Stockholm,Matteusskolan,Vanadisvägen 16,11346,Stockholm,https://grundskola.stockholm/hitta-grundskola/grundskola/matteusskolan-f-9/,J,18.0480606,59.347694,3.0
16394249,14.8875,9.0,13.0375,,12.308333333333332,Enskild,Stockholm,Ellen Key skolan,Duvbovägen 94,16343,Spånga,http://www.eks.se,J,17.9184246,59.37816429999999,4.1
16426165,16.616666666666667,13.0,13.925000000000002,,14.513888888888891,Enskild,Stockholm,Kunskapsskolan Enskede,Enskedevägen 89,12263,Enskede,https://www.kunskapsskolan.se,N,18.0726161,59.2824779,3.0
16762245,14.125,13.3,12.899999999999999,,13.441666666666668,Enskild,Botkyrka,Edessaskolan,Borgvägen 10,14568,Norsborg,http://www.edessaskolan.se,J,17.8245604,59.249201,5.0
16969143,14.416666666666666,11.6,11.924999999999999,11.55,12.372916666666665,Kommunal,Upplands-Bro,Hagnässkolan,Hagnäsvägen 1-3,19637,Kungsängen,http://www.upplands-bro.se/barn-och-utbildning/barn-och-unga-6-16-ar/kommunala-skolor/hagnasskolan.html,N,17.7515764,59.5014586,3.2
17165481,17.349999999999998,15.6,15.733333333333334,,16.227777777777778,Kommunal,Stockholm,Brotorpsskolan,Rusthållarvägen 225,12844,Bagarmossen,https://grundskola.stockholm/hitta-grundskola/grundskola/brotorpsskolan-f-6/,J,18.1423876,59.2739474,4.1
17957898,15.291666666666666,9.766666666666666,12.450000000000001,,12.502777777777778,Enskild,Haninge,Innovitaskolan Rudan,Bodekulls väg 1,13637,Handen,https://innovitaskolan.se/rudan/,J,18.1324536,59.1608985,3.4
18064456,13.966666666666667,12.133333333333335,13.408333333333333,,13.169444444444444,Kommunal,Stockholm,Söderholmsskolan,Våruddsringen 202,12741,Skärholmen,https://grundskola.stockholm/hitta-grundskola/grundskola/soderholmsskolan-f-6/,J,17.8764459,59.2768434,3.0
18193338,15.583333333333334,14.766666666666667,15.4,,15.25,Kommunal,Nynäshamn,Svandammsskolan F-6,Järnvägsgatan 9,14931,Nynäshamn,http://www.nynashamn.se/svanis,J,17.941199,58.8980513,
18534178,12.033333333333333,7.366666666666667,11.0,7.891666666666666,9.572916666666666,Kommunal,Botkyrka,Storvretskolan,Odlingsvägen 36,14750,Tumba,http://www.botkyrka.se/storvretsskolan,J,17.8435232,59.1911146,3.6
19353396,14.800000000000002,11.6,10.741666666666667,,12.380555555555555,Kommunal,Stockholm,Fruängens skola,Fruängsgatan 57-61,12953,Hägersten,https://grundskola.stockholm/hitta-grundskola/grundskola/fruangens-skola-f-9/,J,17.9625708,59.28473529999999,2.8
19942197,17.191666666666666,15.766666666666666,15.416666666666666,,16.124999999999996,Kommunal,Stockholm,Sandåkraskolan,Pepparkaksgränd 2-4,12866,Sköndal,https://grundskola.stockholm/hitta-grundskola/grundskola/sandakraskolan-f-6/,J,18.1155086,59.26062439999999,
20054868,14.25,11.5,14.833333333333334,,13.527777777777779,Kommunal,Sigtuna,Odensala skola,Odensala skola,19592,Märsta,http://www.sigtuna.se/odensalaskolan,J,17.8453734,59.6651986,3.4
20137688,16.891666666666666,14.033333333333333,14.125,,15.016666666666666,Kommunal,Lidingö,Käppala skola,Killingevägen 13,18165,Lidingö,https://www.lidingo.se/kappalaskola,J,18.2102008,59.3548305,2.4
20253736,17.083333333333332,15.266666666666666,15.633333333333335,,15.994444444444442,Kommunal,Sollentuna,Tegelhagens skola,Skogstorpsvägen 370,19139,Sollentuna,https://www.sollentuna.se/uweb/tegelhagens-skola/,J,17.9817558,59.40890609999999,4.3
20561651,16.141666666666666,15.466666666666669,13.816666666666668,,15.141666666666667,Kommunal,Stockholm,Herrängens skola,Konvaljestigen 15,12555,Älvsjö,https://grundskola.stockholm/hitta-grundskola/grundskola/herrangens-skola-f-6/,J,17.9728496,59.2756477,3.4
20683111,14.691666666666668,9.766666666666666,12.558333333333332,10.25,11.816666666666666,Kommunal,Stockholm,Bäckahagens skola,Skebokvarnsvägen 55,12433,Bandhagen,https://grundskola.stockholm/hitta-grundskola/grundskola/backahagens-skola-f-9/,J,18.0438558,59.2680005,3.2
21346638,17.599999999999998,15.033333333333333,15.308333333333332,,15.980555555555554,Kommunal,Nacka,Järla skola,Järla Skolväg 21,13140,Nacka,http://www.jarla.nacka.se,J,18.1573289,59.3086439,3.3
21576764,16.483333333333334,16.400000000000002,15.483333333333334,,16.122222222222224,Kommunal,Vaxholm,Söderfjärdsskolan,Johannesbergsvägen 2,18531,Vaxholm,http://www.vaxholm.se,J,18.3335564,59.40158849999999,4.6
21724208,13.308333333333332,10.433333333333332,13.266666666666666,10.741666666666667,11.937499999999998,Kommunal,Stockholm,Sätraskolan,Bogsätravägen 46,12738,Skärholmen,https://grundskola.stockholm/hitta-grundskola/grundskola/satraskolan-f-9/,J,17.9184974,59.2848515,3.9
21781901,13.541666666666666,11.133333333333333,12.183333333333332,,12.28611111111111,Kommunal,Upplands-Bro,Råbyskolan,Fågelvägen 5,19732,Bro,http://www.upplands-bro.se/barn-och-utbildning/barn-och-unga-6-16-ar/kommunala-skolor/rabyskolan.html,J,17.6380687,59.518738,4.0
21871265,18.349999999999998,16.166666666666668,16.59166666666667,,17.03611111111111,Kommunal,Sollentuna,Sollentuna musikklasser,Sollentunavägen 265-267,19136,Sollentuna,http://www.edu.sollentuna.se/smk,N,17.9353057,59.448805,3.3
21997077,12.502777777777778,10.733333333333334,13.424999999999999,,12.22037037037037,Enskild,Sollentuna,Norra Strand Dibber,Kärleksbacken 3,19275,Sollentuna,http://www.dibber.se,J,17.9309435,59.4831356,2.0
22019000,16.224999999999998,13.033333333333331,13.716666666666669,,14.324999999999998,Enskild,Huddinge,Södertörns friskola,Björnkullaringen 42,14151,Huddinge,http://www.friskola.nu,N,17.9414803,59.2108072,4.5
22030561,15.35,10.85,,12.899999999999999,13.033333333333331,Kommunal,Stockholm,Östbergaskolan,Östberga torg 2-8,12573,Älvsjö,https://grundskola.stockholm/hitta-grundskola/grundskola/ostbergaskolan-f-6/,J,18.0339326,59.2895225,2.8
22127801,17.275,13.0,13.524999999999999,,14.6,Enskild,Huddinge,Internationella Engelska Skolan Länna,Lunnarevägen 1,14251,Skogås,http://www.engelska.se,N,18.14259,59.2093528,4.2
22472689,14.35,10.2,12.400000000000002,,12.316666666666668,Kommunal,Nacka,Jarlabergs skola,Jarlabergsvägen 5,13148,Nacka,http://www.jarlaberg.nacka.se,J,18.1680064,59.31541349999999,3.0
22513261,14.283333333333333,9.966666666666667,14.125,10.399999999999999,12.19375,Kommunal,Stockholm,Kista grundskola,Köpenhamnsgatan 11,16425,Kista,https://grundskola.stockholm/hitta-grundskola/grundskola/kista-grundskola-f-9-1/,J,17.9404282,59.40239039999999,3.3
22777703,19.10833333333333,16.666666666666668,16.141666666666666,14.649999999999999,16.641666666666666,Kommunal,Stockholm,Johannes skola,Roslagsgatan 61,11354,Stockholm,https://grundskola.stockholm/hitta-grundskola/grundskola/johannes-skola-f-6/,J,18.0551833,59.3509282,3.0
22807677,15.883333333333331,14.733333333333334,14.325000000000001,,14.980555555555556,Kommunal,Täby,Näsbydalskolan,Östra Banvägen 90,18337,Täby,http://www.taby.se/nasbydalskolan,N,18.0672759,59.44000579999999,3.3
22847273,15.35,12.299999999999999,14.0,,13.883333333333333,Kommunal,Sundbyberg,Ängskolan   F-6,Vackra vägen 6-8,17240,Sundbyberg,http://www.sundbyberg.se/angskolan,J,17.9737346,59.3676809,3.1
22904289,16.633333333333333,14.033333333333331,16.333333333333332,,15.666666666666666,Kommunal,Nacka,Vilans skola,Danvikshemsvägen 4-6,13131,Nacka,http://www.vilan.nacka.se,J,18.1173596,59.31398970000001,3.2
23066257,17.375,12.666666666666666,14.975,,15.005555555555555,Enskild,Stockholm,Kulturama gr. Hammarby Sjöstad,Virkesvägen 21,10432,Stockholm,http://www.kulturama.se,N,18.0977757,59.3017755,4.4
23312767,16.591666666666665,14.966666666666667,15.341666666666669,,15.633333333333333,Enskild,Täby,Noblaskolan Täby,Fjätursvägen 6,18746,Täby,https://noblaskolan.se/taby/,J,18.0326915,59.4523096,2.9
23617768,16.733333333333334,13.933333333333332,14.383333333333333,,15.016666666666666,Kommunal,Stockholm,Katarina Norra skola,Tjärhovsgatan 15-17,11621,Stockholm,https://grundskola.stockholm/hitta-grundskola/grundskola/katarina-norra-skola-f-9/,J,18.0803822,59.3158944,3.3
23756252,14.908333333333333,12.933333333333332,13.608333333333334,,13.816666666666668,Kommunal,Österåker,Sjökarbyskolan,Sjökarbyvägen 24,18434,Åkersberga,http://www.osteraker.se,J,18.3167812,59.50004730000001,5.0
24142153,16.349999999999998,14.133333333333333,14.475,,14.986111111111109,Enskild,Täby,Futuraskolan International Bergtorp,Viggbyholmsvägen 59,18369,Täby,http://www.futuraskolan.se,N,18.1024601,59.44723370000001,4.4
24146389,11.758333333333333,8.833333333333334,11.466666666666669,7.9,9.989583333333334,Kommunal,Norrtälje,Hallsta skola,Skolvägen 15-17,76334,Hallstavik,http://www.norrtalje.se,J,18.5984676,60.05552280000001,3.4
24172067,15.65,14.533333333333331,14.799999999999999,,14.994444444444442,Enskild,Stockholm,Kulturskolan Raketen,Björkhagsplan 5-9,12153,Johanneshov,http://www.kulturskolanraketen.se,J,18.1170057,59.2911775,3.9
24374886,13.283333333333331,11.1,14.862499999999997,10.416666666666666,12.415624999999999,Enskild,Upplands Väsby,Vittra Väsby,Drabantgatan 3-5,19449,Upplands Väsby,http://www.vittra.se/vasby,J,17.9170596,59.5175577,3.7
24561769,14.441666666666665,11.933333333333332,12.683333333333332,,13.019444444444444,Kommunal,Värmdö,Hemmestaskolan,Motionsvägen 4,13932,Värmdö,http://www.varmdo.se,J,18.4861791,59.3200164,2.7
24606968,14.041666666666666,13.333333333333334,14.5,,13.958333333333334,Kommunal,Upplands-Bro,Härneviskolan,Härnevi skolväg 10,19730,Bro,http://www.upplands-bro.se/barn-och-utbildning/barn-och-unga-6-16-ar/kommunala-skolor/harneviskolan.html,J,17.6340131,59.5136815,3.7
24716970,16.26666666666667,12.299999999999999,14.424999999999999,,14.330555555555556,Kommunal,Stockholm,Högalidsskolan,Folkskolegatan 13,11735,Stockholm,https://grundskola.stockholm/hitta-grundskola/grundskola/hogalidsskolan-f-9/,J,18.0310805,59.31716050000001,3.5
24754913,13.674999999999999,9.266666666666667,,10.808333333333332,11.25,Kommunal,Stockholm,Knutbyskolan,Knutbygränd 4,16373,Spånga,https://grundskola.stockholm/hitta-grundskola/grundskola/knutbyskolan-f-6/,J,17.9305462,59.38543929999999,
25253749,17.233333333333334,15.200000000000001,15.200000000000001,,15.87777777777778,Enskild,Lidingö,Albatross Montessoriskola,Larsbergsvägen 29,18138,Lidingö,http://www.albatross-montessori.se,J,18.1490444,59.34723499999999,3.4
25309669,15.858333333333334,11.766666666666666,11.975,,13.200000000000001,Enskild,Täby,Kunskapsskolan Täby,Källtorpsvägen 4,18371,Täby,http://www.kunskapsskolan.se,N,18.0792228,59.4341714,3.4
25506439,13.441666666666668,12.199999999999998,11.433333333333332,,12.358333333333333,Kommunal,Botkyrka,Kassmyraskolan,Sälgvägen 12,14733,Tumba,http://www.botkyrka.se/kassmyraskolan,J,17.8232472,59.1873301,3.6
25555358,17.258333333333333,15.200000000000001,15.025,,15.827777777777778,Kommunal,Stockholm,Eiraskolan,Parmmätargatan 10,11224,Stockholm,https://grundskola.stockholm/hitta-grundskola/grundskola/eiraskolan-f-6/,J,18.0473948,59.3275415,3.2
25772114,16.349999999999998,14.4,14.941666666666668,,15.230555555555556,Kommunal,Vaxholm,Vaxö skola,Lägergatan 9,18534,Vaxholm,http://www.vaxholm.se,J,18.3433605,59.40443310000001,3.8
25918983,12.283333333333333,9.933333333333332,10.441666666666666,7.15,9.952083333333333,Kommunal,Botkyrka,Hammerstaskolan,Hallundavägen 199,14564,Norsborg,http://www.botkyrka.se/hammerstaskolan,J,17.8094228,59.24147110000001,3.6
26281697,15.1,9.766666666666667,14.775,,13.213888888888889,Enskild,Norrtälje,Montessoriskolan - Gustafslund,Stockholmsvägen 18-20,76143,Norrtälje,http://www.montessoriskolan.nu,N,18.6935995,59.754472,
26568390,14.174999999999999,8.833333333333334,12.308333333333332,,11.77222222222222,Enskild,Stockholm,Innovitaskolan Södermalms Högstadium,Vintertullstorget 2,11643,Stockholm,https://innovitaskolan.se/sodermalm/,N,18.0904988,59.30757629999999,2.6
26852132,16.658333333333335,15.166666666666666,15.183333333333332,,15.669444444444444,Kommunal,Stockholm,Solhemsskolan,Sörgårdsvägen 40,16352,Spånga,https://grundskola.stockholm/hitta-grundskola/grundskola/solhemsskolan-f-6/,J,17.8911807,59.3808591,4.6
27273328,14.65,10.433333333333334,12.933333333333332,,12.672222222222222,Kommunal,Stockholm,Årstadalsskolan,Sjöviksbacken 19,11743,Stockholm,https://grundskola.stockholm/hitta-grundskola/grundskola/arstadalsskolan-f-6/,J,18.0311582,59.3048763,3.9
27323097,15.816666666666665,13.866666666666665,14.35,,14.677777777777777,Enskild,Solna,Noblaskolan Solna,Gustav III:s Boulevard 15,16972,Solna,https://noblaskolan.se/solna/,J,18.0147838,59.3686525,3.6
27357778,14.716666666666667,14.633333333333335,16.3,12.858333333333334,14.627083333333335,Kommunal,Stockholm,Oxhagsskolan,Helsingforsgatan 4,16478,Kista,https://grundskola.stockholm/hitta-grundskola/grundskola/oxhagsskolan-f-6/,J,17.9199697,59.4126619,3.9
27595656,15.950000000000001,13.733333333333334,14.675000000000002,,14.786111111111113,Enskild,Ekerö,Birkaskolan,Auroravägen 12,17832,Ekerö,http://www.birkaskolan.se,J,17.8048064,59.29108119999999,2.8
28231215,16.208333333333332,14.199999999999998,14.908333333333333,,15.105555555555554,Enskild,Ekerö,Drottningholmskolan,Skolallén 3,17893,Drottningholm,http://www.drottningholmskolan.se,J,17.8629939,59.3221696,4.0
28313791,14.341666666666667,11.566666666666668,12.799999999999999,,12.902777777777779,Kommunal,Huddinge,Tomtbergaskolan,Kommunalvägen 31 A,14148,Huddinge,http://www.huddinge.se/tomtbergaskolan,J,17.9912941,59.2405922,3.3
28799594,15.7625,13.65,15.0875,,14.833333333333334,Kommunal,Sollentuna,Kärrdalsskolan,Lomvägen 23,19256,Sollentuna,http://sites.google.com/a/edu.sollentuna.se/kdl/,J,17.9978618,59.4318575,4.9
29158808,16.175,13.766666666666666,14.591666666666669,,14.844444444444443,Kommunal,Stockholm,Observatorielundens skola,Sandåsgatan 2,11327,Stockholm,https://grundskola.stockholm/hitta-grundskola/grundskola/observatorielundens-skola-f-9/,J,18.0525426,59.3421582,2.3
29278599,15.741666666666669,12.733333333333334,13.058333333333332,,13.844444444444443,Kommunal,Vallentuna,Lovisedalsskolan,Uthamra skolväg 1 ,18653,Vallentuna,http://www.vallentuna.se/lovisedal/,J,18.062647,59.50989860000001,3.3
29371242,17.224999999999998,15.866666666666665,15.200000000000001,,16.09722222222222,Enskild,Stockholm,Campus Manilla,Manillavägen 32-36,11521,Stockholm,http://www.campusmanilla.se,J,18.1333486,59.32346569999999,2.8
29410344,16.366666666666667,14.1,14.600000000000001,,15.022222222222224,Kommunal,Stockholm,Kungsholmens grundskola,S:t Göransgatan 73,11238,Stockholm,http://www.kungsholmensgrundskola.stockholm.se/,J,18.0281804,59.333565,4.1
29497099,17.4375,11.7,15.5125,10.175,13.70625,Enskild,Södertälje,Internationella Engelska Skolan Södertälje,Häradsvägen 10,15248,Södertälje,http://www.engelska.se,J,17.6363978,59.2122257,3.7
29524966,12.9375,8.0,,11.6375,10.858333333333334,Enskild,Botkyrka,Freinetskolan Kastanjen,Slagsta Gårdsväg 2,14574,Norsborg,http://www.kastanjen.nu,J,17.8460149,59.2530501,3.2
29705473,14.291666666666664,9.666666666666666,12.899999999999999,9.883333333333333,11.685416666666665,Kommunal,Stockholm,Snösätraskolan,Vallhornsgatan 21,12461,Bandhagen,https://grundskola.stockholm/hitta-grundskola/grundskola/snosatraskolan-f-6/,J,18.0330208,59.2561835,4.0
29725531,17.816666666666666,13.733333333333334,14.85,12.350000000000001,14.6875,Enskild,Stockholm,Engelska Skolan Norr,Roslagstullsbacken 4,11421,Stockholm,http://www.esn.se,J,18.0592348,59.3505912,3.6
29796042,14.733333333333334,10.766666666666666,12.924999999999999,,12.808333333333332,Enskild,Stockholm,Tornadoskolan AB,Gondolgatan 16. 3 tr,12832,Skarpnäck,http://www.tornadoskolan.se,J,18.1362341,59.2668093,3.6
30270791,13.291666666666666,9.366666666666667,11.966666666666667,7.4750000000000005,10.525,Kommunal,Haninge,Åbyskolan,Bokstigen 14,13734,Västerhaninge,http://haninge.se/forskola-och-skola/grundskola/,J,18.1039063,59.1250942,1.0
31018677,14.791666666666666,8.233333333333333,11.783333333333333,7.483333333333332,10.572916666666666,Kommunal,Upplands Väsby,Väsby skola,Skolvägen 11,19476,Upplands Väsby,http://www.upplandsvasby.se/vasbyskola,J,17.9084579,59.5218304,3.6
31281674,14.15,10.533333333333333,14.9,,13.194444444444445,Kommunal,Tyresö,Nyboda skola,Pluggvägen 2,13546,Tyresö,http://www.tyreso.se,N,18.2287552,59.24025400000001,2.4
31528772,14.775,10.033333333333333,15.966666666666667,,13.591666666666667,Enskild,Södertälje,Mariaskolan,Hjulåkersvägen 1,15332,Järna,http://www.mariaskolan.nu,J,17.5590833,59.0857395,2.7
31758556,15.783333333333333,12.833333333333334,14.233333333333334,,14.283333333333333,Kommunal,Österåker,Margretelundsskolan,Manfred Bondes väg 5,18462,Åkersberga,http://www.osteraker.se,J,18.342847,59.47359789999999,3.7
31903219,14.533333333333333,10.700000000000001,12.641666666666667,12.912500000000001,12.696875,Kommunal,Stockholm,Magelungsskolan,Ullerudsbacken 39,12373,Farsta,https://grundskola.stockholm/hitta-grundskola/grundskola/magelungsskolan-f-6/,J,18.1050214,59.23296929999999,3.5
32231541,17.241666666666667,15.9,15.6,,16.247222222222224,Enskild,Täby,Täby Friskola-Enhagen,Enhagsslingan 23-25,18740,Täby,http://www.tabyfriskola.se,N,18.0353056,59.4389704,2.8
32479095,15.583333333333334,14.333333333333334,15.725,,15.213888888888889,Kommunal,Sollentuna,Vaxmoraskolan,Diskusvägen 6,19248,Sollentuna,http://www.edu.sollentuna.se/vax/,J,17.94847,59.4545798,3.6
32886383,15.791666666666666,14.666666666666666,14.933333333333332,,15.130555555555555,Kommunal,Huddinge,Mörtviksskolan,Sonatvägen 2,14241,Skogås,http://www.huddinge.se/mortviksskolan,J,18.1633128,59.2160045,4.1
32965692,15.316666666666668,13.1,14.125,,14.180555555555557,Enskild,Nacka,Noblaskolan Saltsjö-Boo,Hedenströms väg 1,13242,Saltsjö-Boo,https://noblaskolan.se/saltsjo-boo/,J,18.2336434,59.3057816,3.0
32993837,16.708333333333332,13.5,15.750000000000002,,15.319444444444445,Kommunal,Sundbyberg,Ursvikskolan,Ursviksvägen 99 B,17446,Sundbyberg,http://www.sundbyberg.se/ursvikskolan,J,17.9670661,59.3814881,3.5
33455004,13.216666666666667,9.166666666666666,10.775,,11.052777777777777,Kommunal,Tyresö,Njupkärrs skola,Granängsstigen 1,13544,Tyresö,http://www.tyreso.se,J,18.2244921,59.23565540000001,3.3
33483759,17.487499999999997,13.8,14.525,,15.270833333333334,Enskild,Stockholm,Olympen Telefonplan,Flygelgatan 1,12628,Hägersten,http://www.olympen.se,J,18.0016959,59.2979479,2.2
33565539,15.612499999999999,13.75,14.0125,,14.458333333333334,Kommunal,Vallentuna,Gustav Vasaskolan,Lindholmsvägen 211,18694,Vallentuna,http://www.skolor.vallentuna.se/gustavvasa/,J,18.1044937,59.5882501,3.4
33624606,13.799999999999999,11.933333333333332,12.983333333333333,,12.905555555555553,Kommunal,Haninge,Måsöskolan,Måsövägen 3,13649,Vega,http://haninge.se/forskola-och-skola/grundskola/,J,18.1297978,59.1900906,3.9
34135484,16.941666666666666,13.800000000000002,14.658333333333331,,15.133333333333333,Enskild,Nacka,Noblaskolan Järla sjö,Winborgs väg 12,13160,Nacka,https://noblaskolan.se/jarla-sjo/,J,18.14973,59.304951,2.0
34148887,12.549999999999999,11.866666666666665,12.825,9.725,11.741666666666665,Kommunal,Södertälje,Blombackaskolan,Källgatan 8,15160,Södertälje,http://www.sodertalje.se/blombackaskolan,J,17.608933,59.19353839999999,4.3
34540901,17.308333333333334,13.433333333333332,14.708333333333334,14.275,14.93125,Enskild,Stockholm,Estniska Skolan i Stockholm,Svartmangatan 20-22,11129,Stockholm,http://www.estniskaskolan.se,J,18.0727373,59.32372340000001,4.0
34671128,13.875,11.033333333333333,13.199999999999998,,12.702777777777776,Kommunal,Stockholm,Solbergaskolan,Lerkrogsvägen 28,12679,Hägersten,https://grundskola.stockholm/hitta-grundskola/grundskola/solbergaskolan-f-6/,J,18.0057899,59.2902922,3.5
34814578,14.15,10.166666666666666,12.174999999999999,,12.16388888888889,Kommunal,Nynäshamn,Viaskolan 6-9,Skolgatan 35-37,14930,Nynäshamn,http://www.nynashamn.se/viaskolan,N,17.9492162,58.90952429999999,
35129114,18.5625,13.0,13.037500000000001,6.475,12.76875,Enskild,Stockholm,Internationella Engelska Skolan Årsta,Sköntorpsvägen 27 ,12038,Årsta,http://www.engelska.se,N,18.0624324,59.2979884,3.8
35547286,18.14166666666667,16.733333333333334,16.200000000000003,,17.025000000000002,Enskild,Stockholm,Carlssons skola,Kommendörsgatan 31,11458,Stockholm,http://www.carlssonsskola.se,J,18.084453,59.3380403,4.3
35890890,12.299999999999999,9.8,12.858333333333334,9.941666666666665,11.225,Enskild,Stockholm,Västerholms friskola,Vårbergsvägen 41-43,12747,Skärholmen,http://www.vasterholm.se,J,17.8997427,59.2735124,4.0
35933721,16.15,15.166666666666666,15.283333333333333,,15.533333333333331,Kommunal,Lidingö,Rudboda skola,Nilstorpsvägen 3,18147,Lidingö,https://www.lidingo.se/rudbodaskola,J,18.1800396,59.37442589999999,1.8
36031993,14.424999999999999,11.2,10.8125,,12.145833333333334,Kommunal,Stockholm,Vällingbyskolan,Offerdalsgatan 1-9,16264,Vällingby,https://grundskola.stockholm/hitta-grundskola/grundskola/vallingbyskolan-f-9/,J,17.8831132,59.36411570000001,2.4
36066067,17.925,17.066666666666666,16.958333333333332,,17.316666666666666,Enskild,Stockholm,Musikskolan Lilla Akademien,Norrtullsgatan 14,11345,Stockholm,http://www.lillaakademien.se,J,18.0494899,59.3467144,3.6
36185466,16.2875,15.1,14.25,,15.2125,Enskild,Lidingö,I Ur och Skur Utsikten skola,Kyrkviksstigen 3-9,18146,Lidingö,http://www.iurochskurutsikten.se,J,18.1603713,59.370834,3.7
36262199,15.966666666666667,13.266666666666666,14.458333333333334,,14.56388888888889,Kommunal,Salem,Nytorpsskolan,Tvillingvägen 10,14464,Rönninge,https://www.salem.se/barn--utbildning/grundskola/grundskolor/nytorpsskolan/,J,17.7306737,59.2017888,3.6
36281817,17.275000000000002,15.733333333333334,15.991666666666665,,16.333333333333336,Kommunal,Stockholm,Höglandsskolan,Höglandstorget,16771,Bromma,https://grundskola.stockholm/hitta-grundskola/grundskola/hoglandsskolan-f-9/,J,17.9413826,59.32362569999999,3.1
36350546,12.866666666666667,10.466666666666667,12.466666666666669,7.016666666666666,10.704166666666667,Kommunal,Botkyrka,Tunaskolan,Prästgårdsvägen 114,14740,Tumba,http://www.botkyrka.se/tunaskolan,J,17.8303879,59.204421,3.5
36513280,18.558333333333334,14.733333333333334,15.808333333333332,,16.366666666666667,Enskild,Lidingö,Futuraskolan International Gåshaga ,Värdshusvägen 3-5,18163,Lidingö,http://www.futuraskolan.se,J,18.225935,59.35737099999999,4.9
36520624,14.525,13.299999999999999,13.533333333333333,,13.786111111111111,Kommunal,Stockholm,Nybohovsskolan,Nybohovsbacken 57-59,11764,Stockholm,https://grundskola.stockholm/hitta-grundskola/grundskola/nybohovsskolan-f-6/,J,18.0162752,59.30756769999999,3.0
36689149,14.412500000000001,12.600000000000001,13.35,,13.454166666666667,Kommunal,Huddinge,Skogskällan,Källbrinksvägen 55,14131,Huddinge,https://www.huddinge.se/skogskallan,J,17.9615072,59.2488178,
37112288,16.866666666666664,13.766666666666667,15.908333333333333,,15.513888888888888,Enskild,Sundbyberg,Kulturama Grundsk. Sundbyberg,Lötsjövägen 10-12,17452,Sundbyberg,http://www.kulturama.se,N,17.9665058,59.3747079,3.9
37147254,15.158333333333333,13.766666666666666,13.941666666666668,,14.28888888888889,Kommunal,Tyresö,Kumla skola,Tors väg 12,13551,Tyresö,http://www.tyreso.se,J,18.2070447,59.22163819999999,3.2
37556682,14.166666666666666,10.6,12.6,10.2625,11.907291666666666,Enskild,Stockholm,Kista International School,Sibeliusgången 11,16477,Kista,http://www.kistaschool.se,J,17.9160874,59.4136684,3.9
37796564,14.412500000000001,13.95,12.125,,13.495833333333332,Kommunal,Stockholm,Akalla grundskola F-9,Mariehamnsgatan 3-5,16471,Kista,https://grundskola.stockholm/hitta-grundskola/grundskola/akalla-grundskola-f-9/,J,17.9097631,59.41601589999999,3.7
38394561,14.433333333333332,10.299999999999999,13.408333333333331,,12.713888888888889,Enskild,Södertälje,Södertälje friskola,Nyköpingsvägen 54,15132,Södertälje,http://www.sodertaljefriskola.se,J,17.6272985,59.1868148,4.0
38653015,14.35,11.866666666666667,13.266666666666666,,13.161111111111111,Kommunal,Södertälje,Pershagenskolan,Bränningestrandsvägen 4,15153,Södertälje,http://www.sodertalje.se/pershagenskolan.,J,17.6518244,59.1529801,2.5
38661388,13.791666666666666,11.966666666666669,13.358333333333334,,13.03888888888889,Kommunal,Botkyrka,Broängsskolan,Kärrvägen 20,14732,Tumba,http://www.botkyrka.se/broangsskolan,J,17.8095924,59.1830052,2.8
38758770,15.833333333333334,12.366666666666667,13.516666666666667,12.25,13.491666666666667,Kommunal,Stockholm,Farsta grundskola,Farstavägen 118,12332,Farsta,https://grundskola.stockholm/hitta-grundskola/grundskola/farsta-grundskola-med-adolf-fredriks-musikklasser-f-9/,J,18.0902162,59.2404638,3.9
38854084,15.9,11.866666666666667,13.875,,13.880555555555555,Kommunal,Sigtuna,Steningehöjdens skola,Solurstorget 5,19565,Steningehöjden,http://www.sigtuna.se,J,17.794468,59.62171619999999,3.8
38935587,18.5,14.800000000000002,14.058333333333332,,15.786111111111111,Enskild,Stockholm,Internationella Engelska Skolan Enskede ,Lingvägen 123,12245,Enskede,http://www.engelska.se,J,18.0846017,59.2619141,3.3
38975788,14.716666666666669,10.333333333333334,12.216666666666669,,12.422222222222224,Kommunal,Haninge,Tungelsta skola,Tungelstavägen 135,13755,Tungelsta,http://haninge.se/forskola-och-skola/grundskola/,J,18.0448787,59.1068395,1.8
39171821,14.958333333333334,13.200000000000001,14.033333333333333,9.975000000000001,13.041666666666668,Kommunal,Stockholm,Örbyskolan,Gamla Huddingevägen 425,12542,Älvsjö,https://grundskola.stockholm/hitta-grundskola/grundskola/orbyskolan-f-9/,J,18.0266113,59.27453619999999,3.7
39195819,16.675,14.166666666666666,15.575000000000001,,15.472222222222223,Kommunal,Ekerö,Sanduddens skola,Sanduddsvägen 4,17840,Ekerö,http://www.ekero.se/sanduddensskola,J,17.7786663,59.2726173,4.0
39229061,13.225,8.766666666666666,11.924999999999999,10.087499999999999,11.001041666666666,Kommunal,Huddinge,Östra grundskolan,Österleden 13,14263,Skogås,http://www.huddinge.se/ostragrundskolan,N,18.1515041,59.2162123,2.6
39907811,15.5375,13.2,14.462499999999999,11.962499999999999,13.790624999999999,Kommunal,Sollentuna,Sofielundsskolan,Sollentunavägen 192,19135,Sollentuna,http://www.sollentuna.se/sv/uweb/sofielundsskolan/,J,17.949875,59.43349679999999,4.4
40175889,13.841666666666669,10.5,12.725,11.058333333333335,12.031250000000002,Kommunal,Södertälje,Soldalaskolan,Lundbygatan 5,15147,Södertälje,http://www.sodertalje.se/soldalaskolan,J,17.6056156,59.1859985,3.1
40467992,16.78333333333333,14.133333333333333,13.291666666666666,,14.736111111111109,Enskild,Sollentuna,Futuraskolan International Hertig Karl,Ebba Brahes väg 1,19269,Sollentuna,http://www.futuraskolan.se,J,17.9098211,59.4771078,2.1
40631085,11.725,7.9333333333333345,,7.783333333333332,9.147222222222222,Kommunal,Botkyrka,Fittjaskolan Botkyrka Norra,Stökhagsvägen 1,14550,Norsborg,http://www.botkyrka.se/fittjaskolanbotkyrkanorra,J,17.8611468,59.2459564,3.5
40904373,15.283333333333333,12.966666666666667,15.0,,14.416666666666666,Kommunal,Ekerö,Närlundaskolan,Trädgårdsvägen 2,17832,Ekerö,http://www.ekero.se/narlundaskolan,J,17.7954939,59.2918163,1.8
41176931,16.60833333333333,15.333333333333334,14.758333333333335,,15.566666666666665,Kommunal,Stockholm,Gärdesskolan,Banérgatan 56,11553,Stockholm,https://grundskola.stockholm/hitta-grundskola/grundskola/gardesskolan-f-9/,J,18.0986132,59.34024109999999,3.2
41377165,15.85,15.7,16.950000000000003,,16.166666666666668,Kommunal,Ekerö,Sundby skola,Nyckelbyvägen 2,17890,Ekerö,http://www.ekero.se/sundbyskola,J,17.7168622,59.2882739,3.9
41405700,16.125,14.033333333333333,15.125,,15.094444444444443,Kommunal,Stockholm,Storkyrkoskolan,Svartmannagatan 20-22,11129,Stockholm,https://grundskola.stockholm/hitta-grundskola/grundskola/storkyrkoskolan-f-6/,J,18.0727364,59.3237239,4.6
41584790,14.066666666666668,13.766666666666666,13.125,,13.652777777777779,Enskild,Södertälje,Järna friskola,Ljungstigen 2,15336,Järna,http://www.jarnafriskola.se,J,17.5581688,59.0951876,4.1
41764666,16.291666666666668,14.800000000000002,15.316666666666668,,15.469444444444447,Kommunal,Stockholm,Långbrodalsskolan,Sländvägen 1,12558,Älvsjö,https://grundskola.stockholm/hitta-grundskola/grundskola/langbrodalsskolan-f-6/,J,17.988666,59.2769134,3.9
41888515,16.0,13.6,15.216666666666667,,14.93888888888889,Kommunal,Tyresö,Fårdala skola,Akvarievägen 2,13542,Tyresö,http://www.tyreso.se,J,18.2410956,59.2426773,
42149666,14.016666666666666,9.666666666666668,,10.433333333333334,11.372222222222222,Kommunal,Stockholm,Husbygårdsskolan F-9,Trondheimsgatan 21,16432,Kista,https://grundskola.stockholm/hitta-grundskola/grundskola/husbygardsskolan-4-9/,J,17.9243896,59.4107996,4.1
42202683,18.0,15.3,14.2625,,15.854166666666666,Enskild,Stockholm,Kungsholmens friskola,Pipersgatan 18,11224,Stockholm,http://www.kungsholmens-friskola.se,J,18.0460118,59.3308068,5.0
42215279,16.433333333333334,13.333333333333334,15.108333333333334,11.875,14.1875,Kommunal,Sigtuna,S:t Pers skola,S:t Persgatan 5-7,19332,Sigtuna,http://www.sigtuna.se/stpersskola,J,17.7121305,59.61776039999999,3.5
42328518,17.375,15.5,15.9,,16.258333333333333,Enskild,Stockholm,Franska Skolan/Ecole francaise,Döbelsgatan 9,11140,Stockholm,http://www.franskaskolan.se,J,18.0633494,59.3386105,3.6
42434583,14.683333333333332,12.799999999999999,12.866666666666665,,13.449999999999998,Kommunal,Värmdö,Brunns skola,Brunns centrum,13460,Ingarö,http://www.varmdo.se,J,18.4291508,59.2805708,2.7
42601396,14.466666666666667,11.866666666666667,13.0,,13.111111111111112,Kommunal,Huddinge,Trångsundsskolan,Löparvägen 4,14173,Trångsund,http://www.huddinge.se/trangsundsskolan,J,18.1316697,59.23198719999999,2.3
43038662,15.008333333333335,13.0,14.958333333333334,,14.322222222222223,Kommunal,Ekerö,Färentuna skola,Ölstavägen 5,17998,Färentuna,http://www.ekero.se/farentunaskola,J,17.6549521,59.394252,5.0
43088454,16.025000000000002,13.699999999999998,13.725,,14.483333333333334,Kommunal,Stockholm,Björkhagens skola,Karlskronavägen 10,12152,Johanneshov,https://grundskola.stockholm/hitta-grundskola/grundskola/bjorkhagens-skola-f-9/,J,18.1163777,59.2934966,3.4
43133926,16.816666666666666,14.0,14.225,,15.013888888888888,Kommunal,Solna,Bergshamraskolan,Hjortstigen 1,17071,Solna,http://www.solna.se,J,18.0303495,59.3831876,4.6
43134105,13.416666666666666,10.033333333333333,9.075,10.558333333333334,10.770833333333332,Enskild,Stockholm,Cordoba International School,Kottbygatan 7,16475,Kista,http://www.cordobaskolan.se,J,17.9230708,59.41830820000001,3.6
43138370,16.116666666666667,12.5,15.575000000000001,,14.730555555555556,Enskild,Sundbyberg,Vittra Brotorp,Boplatsvägen 1,17446,Sundbyberg,http://www.vittra.se/brotorp,J,17.9718154,59.38213549999999,3.9
43166282,16.625000000000004,14.800000000000002,14.741666666666667,,15.388888888888891,Kommunal,Stockholm,Nälstaskolan,Trolle Bondes gata,16272,Vällingby,https://grundskola.stockholm/hitta-grundskola/grundskola/nalstaskolan-f-6/,J,17.8852789,59.3705295,4.1
43238662,12.924999999999999,9.1,13.041666666666666,8.75,10.954166666666666,Kommunal,Botkyrka,Björkhaga Skola,Högbrinksvägen 4,14731,Tumba,http://www.botkyrka.se/bjorkhagaskola,J,17.8243656,59.1989022,2.5
43261877,17.7625,15.25,15.899999999999999,,16.304166666666667,Enskild,Vaxholm,Montessoriskolan i Vaxholm,Johannesbergsvägen 3A,18531,Vaxholm,http://www.monvax.com,J,18.3367842,59.4004437,5.0
43289917,17.116666666666664,14.9,14.408333333333333,,15.475,Kommunal,Danderyd,Vasaskolan,Vendevägen 30 A,18262,Djursholm,https://www.danderyd.se/skolor/vasaskolan/,J,18.0768913,59.399072,3.0
43375546,14.799999999999999,14.133333333333333,12.991666666666665,,13.975,Enskild,Sollentuna,Rälsen AB åk 4-9,Staffans väg 13,19278,Sollentuna,http://www.ralsen.se,N,17.9151632,59.4829215,3.0
43403496,13.725000000000001,8.3,12.350000000000001,,11.458333333333334,Kommunal,Södertälje,Mariekällskolan,Mariekällgatan 3,15144,Södertälje,http://sodertalje.se/oxbacksskolan,N,17.6263589,59.18863450000001,
43632318,13.108333333333334,10.299999999999999,,8.980555555555556,10.796296296296296,Kommunal,Stockholm,Enbacksskolan,Uppingegränd 27-33,16361,Spånga,https://grundskola.stockholm/hitta-grundskola/grundskola/enbacksskolan-f-9/,J,17.905781,59.39034099999999,4.3
43802065,10.4375,4.7,11.524999999999999,,8.8875,Enskild,Södertälje,Lilla Parkskolan,Parkgatan 1,15132,Södertälje,http://www.lillaparkskolan.se,J,17.6246212,59.191829,2.1
43869172,15.950000000000003,13.133333333333335,13.766666666666667,,14.283333333333333,Enskild,Österåker,Fredsborgskolan,Företagsallén 14,18440,Åkersberga,http://www.fredsborgskolan.se,J,18.2742279,59.4830839,2.3
44002887,16.366666666666667,14.033333333333333,15.300000000000002,,15.233333333333334,Kommunal,Täby,Ellagårdsskolan,Ellagårdsvägen 21,18731,Täby,http://www.taby.se/ellagardsskolan,J,18.0445912,59.4429935,3.1
44031601,12.391666666666666,7.466666666666666,11.850000000000001,9.75,10.364583333333332,Kommunal,Haninge,Höglundaskolan,Blockstensvägen 128,13767,Jordbro,http://haninge.se/forskola-och-skola/grundskola/,J,18.1390711,59.14270570000001,3.8
44046131,15.516666666666666,14.266666666666666,12.774999999999999,,14.18611111111111,Kommunal,Stockholm,Sundbyskolan,Sundbyvägen 88-98,16344,Spånga,https://grundskola.stockholm/hitta-grundskola/grundskola/sundbyskolan-f-9/,J,17.9186772,59.3701635,2.4
44175786,16.916666666666668,16.0,15.241666666666667,,16.05277777777778,Kommunal,Nacka,Boo Gårds skola,Boovägen 4,13247,Saltsjö-Boo,http://www.boogard.nacka.se,J,18.2846429,59.3100081,2.6
44227469,13.8625,12.05,11.5375,,12.483333333333334,Kommunal,Upplands Väsby,Grimstaskolan,Vårvägen 1,19464,Upplands Väsby,http://www.upplandsvasby.se/grimstaskolan,N,17.9465511,59.5001014,2.2
44373961,14.383333333333333,14.633333333333335,15.216666666666667,,14.744444444444445,Enskild,Nacka,Idunskolan Östra Stockholms Waldorfskola,Velamsundsvägen 1,13236,Saltsjö-Boo,http://www.idunskolan.se,J,18.3136128,59.33387980000001,4.6
44673074,16.233333333333334,13.766666666666667,15.033333333333333,,15.011111111111111,Kommunal,Stockholm,Abrahamsbergsskolan,Gustav III:s väg 2-10,16830,Bromma,https://grundskola.stockholm/hitta-grundskola/grundskola/abrahamsbergsskolan-f-9/,J,17.9504312,59.33487539999999,3.7
44836298,16.491666666666664,14.733333333333334,14.975,,15.399999999999999,Kommunal,Nacka,Sigfridsborgs skola,Evalundsvägen 37,13834,Älta,http://www.skolor.nacka.se/sigfridsborg,J,18.1968729,59.2569398,
45104329,17.525,14.7,14.8,,15.674999999999997,Kommunal,Lidingö,Torsviks skola,Skolvägen 3,18133,Lidingö,https://www.lidingo.se/torsvikskola,J,18.1267855,59.36559159999999,1.9
45133950,13.75,9.766666666666666,14.425000000000002,,12.647222222222224,Enskild,Norrtälje,Freinetskolan Mimer,Utvägen 25,76163,Norrtälje,http://www.mimer.org,J,18.7120131,59.7709857,3.9
45364437,13.075000000000001,11.566666666666668,13.100000000000001,9.587499999999999,11.832291666666668,Kommunal,Stockholm,Bandhagens skola,Trollesundsvägen 66,12457,Bandhagen,https://grundskola.stockholm/hitta-grundskola/grundskola/bandhagens-skola-f-6/,J,18.051512,59.2647029,4.0
45436515,16.78333333333333,14.866666666666667,14.85,,15.5,Kommunal,Stockholm,Sofia skola,Skånegatan 117,11635,Stockholm,https://grundskola.stockholm/hitta-grundskola/grundskola/sofia-skola-f-9/,J,18.0923176,59.3133293,2.8
45553352,19.233333333333334,16.766666666666666,16.474999999999998,,17.491666666666664,Enskild,Stockholm,Montessori Mondial Kungsholmen,Konradsbergsgatan 24,11259,Stockholm,http://www.stims.se,J,18.0152179,59.32997839999999,3.4
45757947,12.158333333333333,9.799999999999999,,9.183333333333332,10.380555555555555,Kommunal,Botkyrka,Tallidsskolan,Bägarvägen 2,14551,Norsborg,http://www.botkyrka.se/tallidsskolan,J,17.8519657,59.24812619999999,2.8
45882318,15.075000000000001,14.466666666666669,14.008333333333333,,14.516666666666667,Kommunal,Sollentuna,Töjnaskolan,Sveavägen 55 ,19134,Sollentuna,http://www.edu.sollentuna.se/ton/,J,17.929969,59.4238831,4.3
45914893,15.291666666666666,10.799999999999999,13.716666666666669,,13.269444444444446,Kommunal,Haninge,Båtsmansskolan,Järnåldersringen 883,13665,Söderby,http://haninge.se/forskola-och-skola/grundskola/,J,18.1629491,59.1849742,3.5
45984740,13.950000000000001,8.3,9.766666666666667,,10.672222222222222,Enskild,Täby,Helleborusskolan Täby AB,Kuttervägen 1- 3,18353,Täby,http://www.helleborusskolan.se,J,18.0879484,59.4340233,3.2
45994471,12.816666666666665,11.233333333333334,12.833333333333334,,12.294444444444444,Enskild,Södertälje,Solvikskolan,Yttereneby 21,15391,Järna,http://solvikskolan.se,J,17.6203374,59.047666,2.4
46097781,17.36666666666667,15.166666666666666,15.541666666666666,,16.025000000000002,Enskild,Lidingö,Christinaskolan,Läroverksvägen 56,18156,Lidingö,http://www.christinaskolan.se,J,18.1456551,59.35232560000001,3.0
46165232,17.758333333333333,15.366666666666667,15.683333333333332,,16.269444444444442,Kommunal,Stockholm,Mälarhöjdens skola,Lugntorpsvägen 2,12944,Hägersten,https://grundskola.stockholm/hitta-grundskola/grundskola/malarhojdens-skola-f-9/,J,17.9578608,59.2975053,2.2
46206050,16.008333333333333,13.799999999999999,14.383333333333333,,14.730555555555554,Enskild,Vallentuna,Vittra Vallentuna,Zetterlunds väg 140,18654,Vallentuna,http://www.vittra.se/vallentuna,J,18.0744349,59.5103428,3.1
46518352,11.966666666666667,11.233333333333334,11.475,,11.558333333333335,Kommunal,Norrtälje,Elmsta skola,Lärarvägen 4,76430,Väddö,http://www.norrtalje.se,J,18.8095932,59.96912,2.5
46581319,13.85,10.466666666666667,,11.433333333333332,11.916666666666666,Kommunal,Stockholm,Lillholmsskolan,Stångholmsbacken 91-95,12740,Skärholmen,https://grundskola.stockholm/hitta-grundskola/grundskola/lillholmsskolan-f-9/,J,17.8940878,59.2788718,2.9
46585145,17.3125,15.8,16.3,,16.47083333333333,Enskild,Lidingö,Vittra Lidingö,Vesslevägen 3,18145,Lidingö,http://www.vittra.se/lidingo,J,18.1448438,59.3758249,3.8
46616391,16.583333333333332,14.433333333333332,14.066666666666665,,15.027777777777777,Kommunal,Stockholm,Beckombergaskolan,Styresman Sanders väg 14,16860,Bromma,https://grundskola.stockholm/hitta-grundskola/grundskola/beckombergaskolan-f-6/,J,17.9018957,59.3601694,4.6
46706680,15.549999999999999,12.700000000000001,12.550000000000002,,13.600000000000001,Kommunal,Solna,Ulriksdalsskolan,Banmästaregatan 3,17067,Solna,http://www.solna.se,J,18.0029574,59.3807518,3.2
46796995,16.008333333333333,12.333333333333334,13.775,,14.03888888888889,Enskild,Stockholm,Kunskapsskolan Spånga,Salagatan 42,16353,Spånga,https://www.kunskapsskolan.se,N,17.8889043,59.38603149999999,3.1
47204443,14.166666666666666,10.399999999999999,13.449999999999998,,12.672222222222219,Kommunal,Södertälje,Mölnboskolan,Skolvägen 13,15173,Mölnbo,http://www.sodertalje.se/molnboskolan,J,17.4243285,59.0526892,
47462120,15.433333333333332,12.166666666666666,12.991666666666665,,13.530555555555553,Enskild,Sollentuna,Dibber International School Sollentuna ,Lindvägen 16,19270,Sollentuna,https://dibber.se/skola/international-school-sollentuna/,J,17.9232348,59.45344409999999,3.6
47640376,14.641666666666666,12.9,13.783333333333333,,13.774999999999999,Kommunal,Haninge,Dalarö skola,Odinsvägen 31,13770,Dalarö,http://haninge.se/forskola-och-skola/grundskola/,J,18.4089167,59.1346909,2.5
47979659,14.125,12.566666666666668,12.449999999999998,,13.047222222222222,Kommunal,Stockholm,Backluraskolan,Brunklövergränd 12,16577,Hässelby,https://grundskola.stockholm/hitta-grundskola/grundskola/backluraskolan-f-6/,J,17.8165814,59.3920895,3.0
47986219,19.3,14.6,15.366666666666665,,16.42222222222222,Enskild,Sollentuna,Futuraskolan International Rådan,Rådan 3,19138,Sollentuna,http://www.futuraskolan.se,J,18.0010892,59.39975159999999,3.9
48312263,15.025,11.966666666666667,12.741666666666665,,13.244444444444445,Kommunal,Tyresö,Hanvikens skola,Lindalsvägen 47,13550,Tyresö,http://www.tyreso.se,J,18.2099955,59.23632970000001,3.0
48328583,15.841666666666663,12.6,14.091666666666663,11.850000000000001,13.595833333333331,Kommunal,Stockholm,Årstaskolan,Hjälmarsvägen 16,12053,Årsta,https://grundskola.stockholm/hitta-grundskola/grundskola/arstaskolan-f-9/,J,18.0539931,59.29943160000001,3.7
48760074,16.425,12.1,14.341666666666667,,14.28888888888889,Enskild,Solna,Vittra Frösunda,Anders Lundströms gata 5,16973,Solna,http://www.vittra.se/frosunda,J,18.015305,59.3705191,3.7
49021135,14.841666666666669,12.233333333333334,13.391666666666666,,13.488888888888889,Enskild,Upplands Väsby,Södervikskolan,Söderviksvägen 1,19454,Upplands Väsby,http://www.sodervikskolan.se,N,17.9474737,59.5238551,4.0
49631077,16.03333333333333,13.0,14.483333333333334,,14.505555555555555,Kommunal,Lidingö,Högsätra skola,Högsätravägen 8,18158,Lidingö,https://www.lidingo.se/hogsatraskola,J,18.1553911,59.3505657,3.1
49741755,16.2375,15.350000000000001,14.525000000000002,,15.370833333333335,Kommunal,Stockholm,Lugnets skola,Lugnets allé 66,12068,Stockholm,https://grundskola.stockholm/hitta-grundskola/grundskola/lugnets-skola-f-6/,J,18.1075783,59.30562500000001,3.1
49862579,13.450000000000001,11.866666666666667,12.541666666666668,,12.619444444444445,Kommunal,Stockholm,Fagersjöskolan,Havsörnsgränd 16,12349,Farsta,https://grundskola.stockholm/hitta-grundskola/grundskola/fagersjoskolan-f-6/,J,18.0623004,59.2456952,2.6
50060022,14.324999999999998,10.399999999999999,11.483333333333334,9.5,11.427083333333332,Kommunal,Stockholm,Smedshagsskolan,Smedshagsvägen 3,16573,Hässelby,https://grundskola.stockholm/hitta-grundskola/grundskola/smedshagsskolan-f-9/,J,17.8230838,59.378849,3.5
50783450,15.275,13.5,14.041666666666666,7.6,12.604166666666666,Kommunal,Huddinge,Vistaskolan,Vista Skolväg 1,14150,Huddinge,http://www.huddinge.se/vistaskolan,J,17.9509121,59.23270969999999,3.1
50848996,15.116666666666667,13.333333333333334,13.858333333333334,,14.10277777777778,Enskild,Stockholm,Raoul Wallenbergskolan Bromma,Beckombergavägen 316,16861,Bromma,http://www.raoulwallenbergskolan.se,J,17.9026189,59.35686500000001,
50905672,14.691666666666668,12.566666666666668,13.383333333333333,,13.547222222222222,Kommunal,Norrtälje,Rådmansö skola,Kungsgårdsvägen 34,76194,Norrtälje,http://www.norrtalje.se,J,18.9588234,59.749489,5.0
51100048,14.200000000000001,12.4,14.575,,13.725,Kommunal,Sundbyberg,Kymlingeskolan,Oxenstjärnas Alle 41,17463,Sundbyberg,http://www.sundbyberg.se,J,17.9472169,59.38630250000001,4.5
51210001,11.916666666666666,6.3,10.308333333333332,3.5666666666666664,8.022916666666667,Kommunal,Södertälje,Ronnaskolan,Robert Anbergs väg 1-3,15153,Södertälje,http://www.sodertalje.se/ronnaskolan,J,17.5984288,59.20540889999999,3.6
51305351,15.225,14.800000000000002,13.966666666666667,,14.66388888888889,Kommunal,Österåker,Tråsättraskolan,Sjöfågelvägen 1,18461,Åkersberga,http://www.osteraker.se,N,18.3404538,59.4759286,2.0
51341279,14.533333333333333,10.366666666666667,12.975,10.266666666666667,12.035416666666666,Kommunal,Stockholm,Grimstaskolan,Kanngjutargränd 12,16257,Vällingby,https://grundskola.stockholm/hitta-grundskola/grundskola/grimstaskolan-f-9/,J,17.8649368,59.36049259999999,3.3
51772207,16.03333333333333,13.5,14.983333333333334,,14.838888888888889,Enskild,Stockholm,Innovitaskolan Södermalm,Vintertullstorget 2,11643,Stockholm,https://innovitaskolan.se/sodermalm/,J,18.0904988,59.30757629999999,2.6
52064811,14.933333333333332,14.166666666666666,13.65,,14.25,Kommunal,Norrtälje,Skederids skola,Birgittas väg 1,76292,Rimbo,https://www.norrtalje.se/info/barn-och-skola/grundskola/grundskolor/skederids-skola/,J,18.4996747,59.7384405,3.5
52293921,15.083333333333334,13.266666666666666,12.841666666666669,,13.730555555555556,Kommunal,Vallentuna,Bällstabergsskolan,Svampskogsvägen 28,18655,Vallentuna,http://www.skolor.vallentuna.se/ballstaberg/,J,18.0769509,59.51027200000001,3.8
52531425,13.225,10.033333333333333,11.25,,11.502777777777778,Kommunal,Tyresö,Stimmets skola,Forellvägen 43,13542,Tyresö,http://www.tyreso.se,J,18.2346607,59.24589,1.5
52863414,17.724999999999998,15.033333333333333,15.141666666666666,,15.966666666666667,Kommunal,Stockholm,Vasa Real,Karlbergsvägen 15,11327,Stockholm,https://grundskola.stockholm/hitta-grundskola/grundskola/vasa-real-5-9/,N,18.0443017,59.34255339999999,2.6
52866214,13.600000000000001,14.2,13.325,,13.708333333333334,Kommunal,Täby,Myrängsskolan,Tappvägen 3-5,18764,Täby,http://www.taby.se/Myrangsskolan,J,18.0788398,59.4653283,4.1
52885189,17.758333333333336,15.666666666666666,15.85,,16.425,Kommunal,Nacka,Ektorps skola,Skogsstigen 40,13142,Nacka,http://www.ektorp.nacka.se,J,18.1967932,59.31458809999999,3.4
52965560,19.375,15.133333333333333,14.833333333333334,,16.447222222222223,Enskild,Stockholm,Vasa International School of Stockholm,Luntmakargatan 101,11351,Stockholm,http://www.vasainternationalschoolofstockholm.com,J,18.0569129,59.34406259999999,3.6
53075005,16.716666666666665,14.833333333333334,14.983333333333334,,15.511111111111111,Kommunal,Stockholm,Skarpnäcks skola,Kärrtorpsvägen 95,12155,Johanneshov,https://grundskola.stockholm/hitta-grundskola/grundskola/skarpnacks-skola-f-9/,J,18.1130673,59.2820084,3.0
53133366,14.775,11.1,12.333333333333334,,12.736111111111112,Kommunal,Nacka,Orminge skola,Sandövägen 4,13232,Saltsjö-Boo,http://www.orminge.se,J,18.2580394,59.3303086,2.6
53259263,13.325,11.4,11.575,,12.1,Enskild,Solna,"Ingridskolan, grundskola",Hjortstigen 1,17071,Solna,http://www.ingridskolan.se,N,18.0315225,59.3824696,4.0
53319802,13.512500000000001,9.8,13.125,,12.145833333333334,Kommunal,Österåker,Ljusterö skola,Mellansjövägen 60 A,18495,Ljusterö,http://www.osteraker.se,J,18.6231723,59.5262115,3.3
53426548,11.424999999999999,9.399999999999999,,9.516666666666666,10.113888888888887,Kommunal,Botkyrka,Brunnaskolan,Hummlevägen 2,14567,Norsborg,http://www.botkyrka.se/brunnaskolan,J,17.8373962,59.2489629,4.0
54806839,14.716666666666667,10.5,12.683333333333332,,12.633333333333333,Enskild,Norrtälje,Viby friskola,Lillskogsvägen 2,76231,Rimbo,http://www.vibyfriskola.se,J,18.3562771,59.7422534,5.0
54847211,15.875,9.4,13.883333333333333,,13.052777777777777,Enskild,Stockholm,Entréskolan Stockholm,Lövholmsvägen 61,11765,Stockholm,http://www.entreskolan.se,N,18.0122759,59.31315749999999,2.7
55382103,16.5,14.1,14.9,,15.166666666666666,Kommunal,Stockholm,Björngårdsskolan,Maria Prästgårdsgata 9,11852,Stockholm,https://grundskola.stockholm/hitta-grundskola/grundskola/bjorngardsskolan-f-6/,J,18.0647493,59.3161807,3.8
55508705,15.191666666666668,12.133333333333333,14.333333333333334,,13.886111111111113,Enskild,Sigtuna,"Josefinaskolan, grundskola",Rävsta gård,19592,Märsta,http://www.josefinaskolan.se,J,17.7829719,59.6273715,3.3
56299553,14.141666666666667,13.166666666666666,14.174999999999999,12.075,13.389583333333334,Kommunal,Upplands-Bro,Bergaskolan,Gamla Landsvägen 16,19630,Kungsängen,http://www.upplands-bro.se/barn-och-utbildning/barn-och-unga-6-16-ar/kommunala-skolor/bergaskolan.html,J,17.7557947,59.4817405,3.0
56417100,11.375,8.6,,8.466666666666667,9.480555555555556,Kommunal,Botkyrka,Kvarnhagsskolan,Servitutsvägen 17,14559,Norsborg,http://www.botkyrka.se/kvarnhagsskolan,J,17.8470884,59.2351481,2.9
56501561,16.658333333333335,14.9,15.549999999999999,,15.702777777777778,Kommunal,Stockholm,Essingeskolan,Essingestråket 24,11266,Stockholm,https://grundskola.stockholm/hitta-grundskola/grundskola/essingeskolan-f-6/,J,17.9865448,59.3209238,
56568612,12.316666666666668,9.966666666666667,13.225,9.924999999999999,11.358333333333333,Kommunal,Södertälje,Wasaskolan,Prosten Linders väg 2,15145,Södertälje,http://www.sodertalje.se/wasaskolan,J,17.5808969,59.1936851,4.0
56858061,13.575000000000001,10.5,12.241666666666667,,12.105555555555556,Enskild,Salem,Söderby friskola,Söderbyvägen 25,14444,Rönninge,http://www.soderbyfriskola.se,J,17.7765631,59.19736039999999,3.3
56867397,16.683333333333334,15.466666666666667,15.85,,16.0,Enskild,Sollentuna,Silverbäcken Dibber,Silverbäcksvägen 1,19138,Sollentuna,http://www.dibber.se,J,17.9869335,59.40031330000001,3.8
56949296,14.550000000000002,10.100000000000001,12.366666666666665,,12.33888888888889,Kommunal,Stockholm,Blackebergsskolan,Björnsonsgatan 132,16844,Bromma,https://grundskola.stockholm/hitta-grundskola/grundskola/blackebergsskolan-f-6/,J,17.879725,59.34798319999999,3.5
57106833,17.725,17.0,18.9,,17.875,Enskild,Danderyd,Vendestigens skola,Vendevägen 30 A,18262,Djursholm,http://www.vendestigen.se,J,18.0760189,59.39952159999999,2.3
57184925,14.166666666666666,7.8,11.575000000000001,,11.180555555555555,Kommunal,Stockholm,Hökarängsskolan,Fagersjövägen 18,12358,Farsta,https://grundskola.stockholm/hitta-grundskola/grundskola/hokarangsskolan-f-9/,J,18.0760919,59.25581030000001,3.1
57206066,14.508333333333335,13.966666666666667,13.558333333333332,,14.011111111111111,Kommunal,Täby,Vallatorpsskolan,Klövervallsvägen 81,18752,Täby,http://www.taby.se/vallatorpsskolan,J,18.0417914,59.46837600000001,3.7
57228484,10.741666666666665,7.1000000000000005,,9.258333333333333,9.033333333333333,Kommunal,Botkyrka,Grindtorpsskolan,Lagmansbacken 12,14556,Norsborg,http://www.botkyrka.se/grindtorpsskolan,J,17.8441866,59.24099990000001,
57317316,15.3,12.05,13.25,,13.533333333333333,Enskild,Stockholm,JENSEN grundskola Långholmen,Alstaviksvägen 21,11733,Stockholm,https://www.jensengrundskola.se/langholmen,N,18.0265246,59.3221988,3.4
57368693,16.433333333333334,13.933333333333332,14.608333333333334,,14.991666666666667,Kommunal,Nacka,Sickla skola,Gillevägen 5,13133,Nacka,http://www.sickla.nacka.se,J,18.1295112,59.30376709999999,3.6
57370453,13.716666666666667,12.0,12.825000000000001,,12.847222222222223,Kommunal,Vallentuna,Karbyskolan,Vadavägen 1,18670,Brottby,http://www.vallentuna.se/karby,J,18.2205672,59.561454,3.0
58102266,15.483333333333334,10.899999999999999,13.980555555555554,10.100000000000001,12.615972222222222,Enskild,Sollentuna,Vittra Sollentuna,Sollentuna väg 189,19135,Sollentuna,http://www.vittra.se/sollentuna,J,17.9481995,59.4326573,3.3
58286716,13.450000000000003,8.933333333333334,11.525,7.2375,10.286458333333334,Kommunal,Sigtuna,Norrbackaskolan,Odensalavägen 1,19543,Märsta,http://www.sigtuna.se/norrbackaskolan,J,17.8506971,59.6339602,4.8
58294981,15.175,12.4,14.9,4.775,11.8125,Kommunal,Sollentuna,Rösjöskolan,Ribbings väg 22,19252,Sollentuna,https://www.sollentuna.se/uweb/rosjoskolan/,J,17.9762774,59.4465286,3.0
58310322,15.366666666666665,13.5,14.200000000000001,,14.355555555555556,Kommunal,Botkyrka,Trädgårdsstadsskolan,Dymmelkärrsvägen 33,14650,Tullinge,http://www.botkyrka.se/tradgardsstadsskolan,J,17.9142944,59.22066709999999,3.4
58338225,15.841666666666669,13.4,14.566666666666668,,14.60277777777778,Kommunal,Vaxholm,Rindö skola,Rindövägen 81,18541,Vaxholm,http://www.vaxholm.se,J,18.4356309,59.3953699,5.0
58385274,14.033333333333331,9.799999999999999,12.625,13.899999999999999,12.589583333333332,Kommunal,Salem,Skogsängsskolan,Säbytorgsvägen 18-20,14442,Rönninge,https://www.salem.se/barn--utbildning/grundskola/grundskolor/skogsangsskolan/,J,17.7588442,59.19639960000001,2.8
58862351,14.683333333333335,9.366666666666665,12.183333333333332,,12.077777777777778,Kommunal,Tyresö,Bergfotens skola,Bergfotensvängen 2,13537,Tyresö,http://www.tyreso.se,J,18.2196536,59.23703459999999,4.1
59249600,15.275,13.299999999999999,13.783333333333333,8.45,12.702083333333334,Kommunal,Stockholm,Eriksdalsskolan,Ringvägen 58-66,11861,Stockholm,https://grundskola.stockholm/hitta-grundskola/grundskola/eriksdalsskolan-f-9/,J,18.0633164,59.3081341,4.0
59266692,18.237499999999997,15.5,14.925,,16.22083333333333,Enskild,Sollentuna,Vittra Rösjötorp,Lomvägen 100,19256,Sollentuna,http://www.vittra.se/rosjotorp,J,17.9941079,59.43609499999999,3.4
59457803,,,4.8,,4.8,Enskild,Österåker,Helleborusskolan Österåker,Luffarbacken 5,18439,Åkersberga,http://www.helleborusskolan.se,J,18.3072057,59.479277,3.4
59468219,14.966666666666667,10.299999999999999,13.700000000000001,9.6,12.141666666666667,Kommunal,Stockholm,Slättgårdsskolan,Vårholmsbackarna 100,12744,Skärholmen,https://grundskola.stockholm/hitta-grundskola/grundskola/slattgardsskolan-f-9/,J,17.9398234,59.2910073,3.2
59848694,17.683333333333334,15.200000000000001,16.208333333333332,,16.36388888888889,Enskild,Danderyd,Danderyds Montessoriskola,Vendevägen 94,18232,Danderyd,http://www.dmskola.se,J,18.0438952,59.3946599,5.0
59900714,15.983333333333334,11.25,12.358333333333334,,13.197222222222223,Enskild,Stockholm,Vittra Södermalm,Sandbacksgatan 10,11621,Stockholm,http://www.vittra.se/sodermalm,J,18.0826347,59.31697449999999,3.3
59975651,14.891666666666666,12.133333333333333,14.683333333333332,,13.902777777777777,Kommunal,Norrtälje,Svanbergaskolan,Sjöhagavägen,76173,Norrtälje,https://www.norrtalje.se/info/barn-och-skola/grundskola/grundskolor/svanberga-skola/,J,18.6601876,59.8414375,4.0
60131588,17.425,15.5,15.699999999999998,,16.208333333333332,Kommunal,Lidingö,Sticklinge skola,Forellbacken 1,18130,Lidingö,https://www.lidingo.se/sticklingeskola,J,18.1175397,59.3829031,3.0
60211862,13.091666666666667,9.2,11.100000000000001,,11.130555555555555,Enskild,Upplands Väsby,Vikskolan,Viravägen 4,19455,Upplands Väsby,http://www.magnetica.se,J,17.9407478,59.5323205,2.4
60308449,17.974999999999998,15.2,15.725000000000001,,16.3,Enskild,Stockholm,Filosofiska,Horisontvägen 22-24,12834,Skarpnäck,http://www.filosofiska.nu,J,18.1237696,59.2669509,5.0
60382920,10.975,10.166666666666666,,5.683333333333334,8.941666666666666,Kommunal,Stockholm,Rågsveds grundskola,Rågsveds skolgränd 8,12465,Bandhagen,https://grundskola.stockholm/hitta-grundskola/grundskola/ragsveds-grundskola-f-6/,J,18.0243118,59.25794980000001,3.9
60570294,14.35,12.933333333333332,13.975,7.883333333333333,12.285416666666666,Kommunal,Södertälje,Brunnsängskolan,Häradsvägen 8,15248,Södertälje,http://www.sodertalje.se/brunnsangskolan,J,17.6372078,59.2123104,3.8
60904587,17.933333333333334,12.433333333333335,13.35,,14.572222222222223,Enskild,Tyresö,Internationella Engelska Skolan Tyresö,Bollmoragårdsväg 14,13539,Tyresö,http://www.engelska.se,N,18.2200742,59.2475405,2.6
61043089,15.200000000000001,14.6,14.450000000000001,,14.75,Kommunal,Solna,Ekensbergsskolan,Ekensbergsvägen 89,16931,Solna,http://www.solna.se,J,17.9866632,59.36097339999999,4.1
61056172,13.658333333333333,10.466666666666667,13.891666666666666,9.666666666666666,11.920833333333333,Kommunal,Sigtuna,Centralskolan,Skolgatan 3-5,19534,Märsta,http://www.sigtuna.se/centralskolan,J,17.852605,59.6241497,2.2
61061763,14.1375,11.75,13.9875,9.575,12.3625,Kommunal,Upplands-Bro,Finnstaskolan,Blomstervägen 2,19731,Bro,http://www.upplands-bro.se/barn-och-utbildning/barn-och-unga-6-16-ar/kommunala-skolor/finnstaskolan.html,J,17.6468598,59.51544129999999,3.3
61686233,16.45,13.5,14.033333333333333,,14.661111111111111,Kommunal,Stockholm,Rålambshovsskolan,Gjörwellsgatan 13,11260,Stockholm,https://grundskola.stockholm/hitta-grundskola/grundskola/ralambshovsskolan-7-9/,J,18.020025,59.32912659999999,3.2
62288230,13.375,10.500000000000002,13.475,8.625,11.49375,Kommunal,Södertälje,Lina grundskola,Vatt-Annas väg 5-7,15155,Södertälje,http://www.sodertalje.se/linagrundskola,J,17.5883553,59.2109546,4.3
62544265,16.966666666666665,14.0,15.85,,15.605555555555554,Enskild,Stockholm,Fria Maria Barnskola,Fatburskvarngata 28-30,11864,Stockholm,http://www.friamaria.com,J,18.0612359,59.31287559999999,3.5
62862066,17.137500000000003,14.4,15.350000000000001,,15.629166666666668,Kommunal,Sollentuna,Helenelundsskolan,Sollentunavägen 68,19140,Sollentuna,http://www.sollentuna.se/sv/uweb/helenelundsskolan/,J,17.9649113,59.41497289999999,4.2
63300625,17.10833333333333,14.733333333333334,15.75,,15.863888888888889,Kommunal,Sundbyberg,Duvboskolan,Alms väg 9,17276,Sundbyberg,http://www.sundbyberg.se/duvboskolan,J,17.955671,59.3724277,4.5
63321041,16.849999999999998,14.833333333333334,15.033333333333331,,15.572222222222221,Kommunal,Stockholm,Kungliga Svenska Balettskolan,"Söder Mälarstrand 39, 7 tr",11825,Stockholm,http://www.kungligasvenskabalettskolan.se/grundskolan,N,18.0519115,59.320685,4.1
63329692,14.612499999999999,11.850000000000001,13.675,,13.379166666666668,Kommunal,Stockholm,Sörgårdsskolan,Tenorgränd 5,16247,Vällingby,https://grundskola.stockholm/hitta-grundskola/grundskola/sorgardsskolan-f-6/,J,17.8564887,59.3838566,3.7
63542436,15.008333333333333,11.233333333333334,12.683333333333332,,12.975,Kommunal,Sigtuna,Sätunaskolan,Södergatan 57,19547,Märsta,http://www.sigtuna.se/satunaskolan,J,17.8564437,59.63136220000001,3.9
63581692,17.416666666666668,17.166666666666668,16.058333333333334,,16.880555555555556,Kommunal,Danderyd,Enebybergs skola,Gethagsvägen 13,18247,Enebyberg,https://www.danderyd.se/skolor/enebybergs-skola/,J,18.0467074,59.4329775,4.1
63954028,17.0,13.533333333333333,14.433333333333332,,14.988888888888887,Enskild,Stockholm,Kunskapsskolan Fruängen,Ellen Keys gata 2-4,12952,Hägersten,https://www.kunskapsskolan.se,N,17.9653272,59.2880024,3.9
64065082,19.0,16.733333333333334,16.10833333333333,,17.280555555555555,Enskild,Stockholm,Fredrikshovs slotts skola,Fredrikshovsgatan 6,11523,Stockholm,http://www.fredrikshov.se,J,18.0941482,59.33323970000001,4.0
64081877,16.59166666666667,15.333333333333334,14.533333333333331,,15.486111111111112,Kommunal,Huddinge,Snättringeskolan,Häradsvägen 33,14143,Huddinge,http://www.huddinge.se/snattringeskolan,J,17.9841683,59.2546872,3.9
64285853,16.691666666666666,13.766666666666666,15.275,,15.244444444444445,Kommunal,Nacka,Saltsjö-Duvnäs skola,Duvnäsvägen 38,13150,Saltsjö-Duvnäs,http://www.duvnas.nacka.se,J,18.2005373,59.3056252,3.5
64736967,16.991666666666664,15.466666666666667,14.591666666666667,,15.683333333333332,Enskild,Stockholm,Västbergaskolan,Klensmedsvägen 2,12638,Hägersten,http://www.vastbergaskolan.se,J,17.998777,59.2948493,3.6
64836806,15.933333333333332,12.133333333333333,15.175000000000002,,14.41388888888889,Kommunal,Södertälje,Vallaskolan,Sandviksvägen 60,15161,Enhörna,http://www.sodertalje.se/vallaskolan,J,17.4816968,59.2555312,5.0
64949601,10.6,9.133333333333335,,7.625,9.119444444444445,Kommunal,Huddinge,Vårbyskolan,Vårby Allé 26-30,14145,Vårby,http://www.huddinge.se/varbyskolan,J,17.8828632,59.2644853,2.5
65487837,18.166666666666668,13.633333333333335,15.391666666666666,,15.730555555555556,Enskild,Stockholm,Futuraskolan International Stockholm,Erik Dahlbergsgatan 58-62,11557,Stockholm,http://www.futuraskolan.se,J,18.093383,59.34859540000001,3.5
65717061,14.141666666666666,11.799999999999999,13.291666666666666,,13.077777777777776,Kommunal,Nynäshamn,Gröndalsskolan F-9,Idunvägen 23,14931,Nynäshamn,http://www.nynashamn.se/grondalsskolan,J,17.9370879,58.9015293,
65839656,16.400000000000002,14.633333333333333,13.825000000000001,,14.952777777777778,Enskild,Täby,Byängsskolan,Marknadsvägen 299,18379,Täby,http://www.byangsskolan.se,J,18.0793159,59.449683,4.0
65927702,13.524999999999999,11.7,12.962499999999999,,12.729166666666666,Enskild,Haninge,Innovitaskolan Vendelsö,Norrbyvägen 104,13673,Vendelsö,https://innovitaskolan.se/vendelso/,J,18.1786846,59.19776470000001,3.2
66283082,16.6,14.8,14.450000000000001,,15.283333333333333,Kommunal,Stockholm,Hammarbyskolan Norra,Finn Malmgrens väg 5-7,12138,Johanneshov,https://grundskola.stockholm/hitta-grundskola/grundskola/hammarbyskolan-norra-f-6/,J,18.0984185,59.2953584,3.3
66455663,13.525,7.9,,9.025,10.15,Enskild,Stockholm,Engelska Skolan Novia,Sjöviksbacken 24-26,11743,Stockholm,https://www.engelskaskolannovia.se,J,18.0298647,59.30475389999999,2.4
66475520,16.891666666666666,13.433333333333332,14.4,,14.908333333333331,Kommunal,Ekerö,Träkvista skola,Gräsåkersvägen 1,17836,Ekerö,http://www.ekero.se/trakvista,J,17.8005723,59.272307,1.9
66634449,16.224999999999998,11.033333333333333,14.183333333333332,11.549999999999999,13.247916666666665,Enskild,Järfälla,Vittra Jakobsberg,Vibblabyvägen 5,17764,Järfälla,http://www.vittra.se/jakobsberg,J,17.8287402,59.4223312,3.3
66851849,17.575,15.766666666666666,15.450000000000003,,16.26388888888889,Kommunal,Stockholm,Olovslundsskolan,Gustav III:s väg 59-61,16772,Bromma,https://grundskola.stockholm/hitta-grundskola/grundskola/olovslundsskolan-f-6/,J,17.9389198,59.3321828,3.3
67662754,14.7,9.8,11.75,,12.083333333333334,Enskild,Stockholm,Vittra Telefonplan,Snickerigatan 4,12626,Hägersten,http://www.vittra.se/telefonplan,J,17.9902019,59.2995001,2.7
67731691,13.125,8.1,10.325,,10.516666666666667,Enskild,Stockholm,Lunaskolan Södra,Karlsövägen 7-9 (B-huset),12155,Johanneshov,https://www.up.se/lunaskolansodra/,N,18.1110458,59.2860581,3.3
67742754,14.233333333333334,7.5,10.5,4.783333333333333,9.254166666666666,Kommunal,Botkyrka,Karsby International School,Tomtbergavägen 370,14571,Norsborg,http://www.botkyrka.se/karsbyinternationalschool,J,17.8110757,59.24482459999999,3.3
67788311,15.5,13.666666666666666,14.383333333333333,,14.516666666666666,Enskild,Sundbyberg,Noblaskolan Sundbyberg,Marieborgsgatan 12,17446,Sundbyberg,https://noblaskolan.se/sundbyberg/,J,17.9534722,59.3854846,2.9
67809355,14.683333333333332,11.8,14.075,,13.519444444444446,Enskild,Norrtälje,Innovitaskolan Norrtälje,Baldersbåge 2,76154,Norrtälje,https://innovitaskolan.se/norrtalje/,J,18.6927596,59.7725159,4.0
68403656,17.099999999999998,13.1,16.225,,15.475,Enskild,Upplands Väsby,"Sverigefinska sk, Uppl Väsby",Ryttargatan 275,19471,Upplands Väsby,http://www.sprakskolanvasby.se,J,17.9082956,59.50733760000001,4.4
68422076,14.1125,10.85,13.075,,12.679166666666665,Kommunal,Nykvarn,Björkestaskolan,Tjusarstigen 39,15530,Nykvarn,http://www.nykvarn.se,J,17.4336851,59.1728149,3.8
68602166,13.725,11.8,11.200000000000001,,12.241666666666667,Kommunal,Stockholm,Hammarbyskolan Södra,Paternostervägen 18-22,12149,Johanneshov,https://grundskola.stockholm/hitta-grundskola/grundskola/hammarbyskolan-sodra-f-9/,J,18.0978893,59.29063249999999,3.1
68812584,12.166666666666666,7.8,,9.583333333333334,9.85,Kommunal,Stockholm,Askebyskolan,Askebykroken 22,16370,Spånga,https://grundskola.stockholm/hitta-grundskola/grundskola/askebyskolan-f-6/,J,17.9265888,59.3916539,3.1
68939834,18.133333333333333,16.2,16.46666666666667,,16.933333333333334,Enskild,Stockholm,Hillelskolan,Nybrogatan 19A,11439,Stockholm,http://www.hillel.nu,J,18.0767468,59.3352387,
69043808,16.78333333333333,15.366666666666667,15.1,,15.75,Kommunal,Täby,Byleskolan,Bylegårdsvägen 20,18773,Täby,http://www.taby.se/byleskolan,J,18.0781234,59.4994081,3.1
69195602,15.600000000000001,13.1,14.2375,,14.3125,Kommunal,Sollentuna,Silverdalsskolan,Silverdalsvägen 12,19138,Sollentuna,http://www.sollentuna.se/sv/uweb/utbildning-silverdal/,J,17.9799799,59.40336079999999,3.5
69266159,13.933333333333332,10.333333333333334,13.325,9.825000000000001,11.854166666666668,Kommunal,Stockholm,Hjulsta grundskola F-9,Hjulsta Backar 6,16365,Spånga,https://grundskola.stockholm/hitta-grundskola/grundskola/hjulsta-grundskola-f-9/,J,17.8891467,59.3966431,4.2
69329486,17.075,15.133333333333335,14.324999999999998,,15.511111111111111,Kommunal,Lidingö,Källängens skola,Källängsvägen 1,18143,Lidingö,https://www.lidingo.se/kallangensskola,N,18.1436278,59.37145699999999,2.7
69895255,16.525000000000002,13.199999999999998,14.041666666666666,,14.588888888888889,Kommunal,Stockholm,Mariaskolan,Ringvägen 23,11853,Stockholm,https://grundskola.stockholm/hitta-grundskola/grundskola/mariaskolan-f-9/,J,18.0521512,59.315077,3.0
69909271,15.216666666666669,13.733333333333334,13.975,,14.308333333333335,Kommunal,Vaxholm,Resarö skola,Överbyvägen 1,18594,Vaxholm,http://www.vaxholm.se,J,18.3334851,59.4284415,4.0
70089804,12.116666666666667,8.0,10.833333333333334,8.950000000000001,9.975000000000001,Kommunal,Stockholm,Loviselundsskolan,Beata Sparres gränd 16,16555,Hässelby,https://grundskola.stockholm/hitta-grundskola/grundskola/loviselundsskolan-f-6/,J,17.844791,59.3647955,2.9
70182130,12.774999999999999,9.5,12.1,,11.458333333333334,Kommunal,Norrtälje,Drottningdal skola,Roslagsbrovägen 193,76175,Norrtälje,http://www.norrtalje.se,J,18.7407529,59.8378476,3.5
70201551,16.5875,14.600000000000001,13.75,,14.979166666666666,Kommunal,Sollentuna,Gärdesskolan,Malla Silfverstolpes väg 2,19251,Sollentuna,http://www.sollentuna.se/sv/uweb/gardesskolan-med-forskolor/,J,17.9560902,59.44349339999999,4.2
70329261,15.383333333333333,14.6,13.041666666666666,,14.341666666666667,Kommunal,Stockholm,Hägerstensåsens skola,Sedelvägen 30,12932,Hägersten,https://grundskola.stockholm/hitta-grundskola/grundskola/hagerstensasens-skola-f-6/,J,17.981899,59.296998,4.5
70398560,15.125,12.0,14.266666666666666,,13.797222222222222,Kommunal,Stockholm,Kämpetorpsskolan,Kedjevägen 57 B,12641,Hägersten,https://grundskola.stockholm/hitta-grundskola/grundskola/kampetorpsskolan-f-9/,J,17.9956572,59.2838693,3.6
70803136,14.925,13.4,13.825000000000001,,14.050000000000002,Kommunal,Värmdö,Kyrkskolan,Klockargården,13935,Värmdö,http://www.varmdo.se,J,18.5076955,59.35726400000001,4.5
71048800,11.858333333333334,8.333333333333334,,9.291666666666666,9.827777777777778,Kommunal,Botkyrka,Borgskolan,Borgvägen 10,14568,Norsborg,http://www.botkyrka.se/borgskolan,J,17.8245956,59.24919879999999,3.0
71078874,15.958333333333334,14.200000000000001,14.075000000000001,,14.744444444444445,Kommunal,Tyresö,Fornuddens skola,Ängsvägen 8,13553,Tyresö,http://www.tyreso.se,J,18.1959735,59.2209945,4.5
71677992,15.758333333333333,14.433333333333332,14.324999999999998,,14.838888888888887,Kommunal,Salem,Rönninge skola,Rönninge Skolväg 31,14462,Rönninge,https://www.salem.se/barn--utbildning/grundskola/grundskolor/Ronninge-skola/,J,17.7423769,59.18880960000001,4.2
71992738,11.9,9.4,,9.941666666666666,10.41388888888889,Kommunal,Södertälje,Fornbackaskolan,Fornhöjdsvägen 4,15258,Södertälje,http://www.sodertalje.se/fornbackaskolan,J,17.6647102,59.1932799,3.9
72009890,16.587500000000002,12.75,14.974999999999998,,14.770833333333334,Kommunal,Stockholm,Lilla Adolf Fredriks skola,Dalagatan 18,11321,Stockholm,https://grundskola.stockholm/hitta-grundskola/grundskola/lilla-adolf-fredriks-skola-f-6/,J,18.0492903,59.3384946,3.4
72066571,17.233333333333334,11.199999999999998,12.816666666666668,11.025,13.06875,Enskild,Stockholm,Internationella Engelska Skolan Skärholmen,Storsätragränd 8,12739,Skärholmen,http://www.engelska.se,N,17.9186851,59.2809912,2.6
72120589,14.075000000000001,10.233333333333333,9.925,10.266666666666667,11.125,Kommunal,Södertälje,Stålhamraskolan,Skogvaktarvägen 30,15133,Södertälje,http://www.sodertalje.se/stalhamraskolan,J,17.6215865,59.17806900000001,3.5
72248694,15.966666666666667,14.1,14.083333333333334,,14.716666666666667,Kommunal,Stockholm,Enskede skola,Stockholmsvägen 30,12262,Enskede,https://grundskola.stockholm/hitta-grundskola/grundskola/enskede-skola-f-9/,J,18.0846699,59.28313249999999,4.1
72266104,14.308333333333332,10.333333333333334,12.408333333333333,,12.35,Kommunal,Haninge,Vendelsömalmsskolan,Henriksbergsvägen 1-5,13667,Vendelsö,http://haninge.se/forskola-och-skola/grundskola/,J,18.1774262,59.1817142,2.2
72345466,14.283333333333333,8.666666666666666,,10.991666666666667,11.313888888888888,Kommunal,Stockholm,Kvarnbyskolan,Lillbybacken 3,16375,Spånga,https://grundskola.stockholm/hitta-grundskola/grundskola/kvarnbyskolan-f-6/,J,17.9331306,59.39057080000001,3.9
72370577,17.333333333333332,16.666666666666668,15.575000000000001,,16.525000000000002,Kommunal,Danderyd,Stocksundsskolan,Studievägen 4,18267,Stocksund,https://www.danderyd.se/skolor/stocksundsskolan-och-langangsskolan/,J,18.0468353,59.38766949999999,2.4
72378947,15.708333333333334,13.166666666666666,14.791666666666666,,14.555555555555555,Enskild,Vallentuna,Vallentuna Friskola,Tellusvägen 40,18636,Vallentuna,http://www.vallentunafriskola.se,N,18.0806732,59.5256862,3.8
72392930,14.033333333333331,12.266666666666666,12.6,,12.966666666666667,Kommunal,Huddinge,Ängsnässkolan,Centralvägen 19,14200,Huddinge,http://www.huddinge.se/angsnasskolan,N,17.995183,59.23340690000001,3.3
72471883,13.049999999999999,10.333333333333334,13.016666666666666,,12.133333333333333,Kommunal,Norrtälje,Länna skola,Länna skolväg 23,76111,Bergshamra,http://www.norrtalje.se,J,18.654644,59.63997999999999,
72509254,15.175,10.8,13.8,,13.258333333333335,Enskild,Stockholm,Lunaskolan Bromma,Johannesfredsvägen 43,16868,Bromma,https://www.up.se/lunaskolanbromma/,J,17.9725852,59.347471,2.8
72624886,18.391666666666666,14.9,13.375,12.987499999999999,14.913541666666665,Enskild,Stockholm,Internationella Engelska Skolan Liljeholmen,Tellusborgsvägen 83,12629,Hägersten,http://www.engelska.se,N,18.0016404,59.2972485,3.4
72627865,15.233333333333334,12.766666666666666,13.308333333333332,,13.769444444444444,Kommunal,Stockholm,Alviksskolan,Tranebergsvägen 73,16745,Bromma,https://grundskola.stockholm/hitta-grundskola/grundskola/alviksskolan/,J,17.976004,59.33514699999999,3.6
72672270,16.466666666666665,13.433333333333332,14.716666666666667,,14.872222222222222,Kommunal,Stockholm,Aspuddens skola,Blommensbergsvägen 166,12651,Hägersten,https://grundskola.stockholm/hitta-grundskola/grundskola/aspuddens-skola-f-9/,J,17.9965158,59.3093796,2.7
72684556,15.774999999999999,10.25,,12.6375,12.887499999999998,Enskild,Stockholm,Framstegsskolan i Stockholm,Rågsveds Skolgränd 8   Hus C,12465,Bandhagen,http://www.fsskolan.se,J,18.024617,59.25820419999999,
73184968,12.733333333333333,8.0,11.225,9.0625,10.255208333333334,Kommunal,Haninge,Brandbergsskolan,Norra Kronans gata 429,13660,Brandbergen,http://haninge.se/forskola-och-skola/grundskola/,J,18.1716837,59.1723588,3.3
73272488,14.966666666666667,13.4,14.174999999999999,,14.180555555555555,Kommunal,Österåker,Skärgårdsstadsskolan,Tre Gruvors väg 1,18470,Åkersberga,http://www.osteraker.se,J,18.3832983,59.48801959999999,3.8
73581523,15.008333333333335,11.733333333333334,12.758333333333333,,13.166666666666666,Kommunal,Solna,Tallbackaskolan,Kristinelundsvägen 1,17150,Solna,http://www.solna.se,J,17.9947382,59.3476605,2.5
73629371,15.625,15.1,14.4,,15.041666666666666,Kommunal,Sollentuna,Gillbo-Gröndalsskolan,Ebba Brahes väg 14,19269,Sollentuna,http://www.sollentuna.se/sv/uweb/utbildning-rotebro,J,17.9078062,59.4732247,3.0
73893187,16.433333333333334,12.333333333333334,13.483333333333334,,14.083333333333334,Enskild,Stockholm,Maria Elementarskola,Kvarngatan 18 ,11847,Stockholm,http://www.mariaelementar.se,J,18.0680651,59.3167048,2.9
74358019,19.091666666666665,15.433333333333332,14.983333333333333,,16.502777777777776,Enskild,Nacka,Internationella Engelska Skolan Nacka,Augustendalsvägen 1,13152,Nacka Strand,http://www.engelska.se,N,18.1618089,59.3150114,3.4
74396596,14.641666666666666,9.766666666666667,,12.0,12.136111111111111,Kommunal,Stockholm,Kvarnbackaskolan,Jyllandsgatan 3,16447,Kista,https://grundskola.stockholm/hitta-grundskola/grundskola/kvarnbackaskolan-f-6/,J,17.934349,59.4051395,3.6
74482611,18.916666666666668,14.1,14.483333333333334,9.45,14.2375,Enskild,Stockholm,Internationella Engelska skolan Hässelby,Aprikosgatan 68-74,16560,Hässelby,http://www.engelska.se,N,17.8364339,59.36228329999999,3.3
74489639,14.175000000000002,12.366666666666665,13.666666666666666,13.325000000000001,13.383333333333335,Enskild,Södertälje,Innovitaskolan Södertälje,Prästgårdsvägen 50,15161,Södertälje,https://innovitaskolan.se/sodertalje/,J,17.591605,59.1937127,4.8
74631147,16.141666666666666,14.266666666666666,14.475,,14.96111111111111,Kommunal,Stockholm,Enskedefältets skola,Sockenvägen 370,12263,Enskede,https://grundskola.stockholm/hitta-grundskola/grundskola/enskedefaltets-skola-f-6/,J,18.0693443,59.2829305,4.4
74723082,10.824999999999998,9.533333333333333,,10.433333333333335,10.263888888888888,Kommunal,Stockholm,Gullingeskolan,Gullingeplan 28,16363,Spånga,https://grundskola.stockholm/hitta-grundskola/grundskola/gullingeskolan-f-6/,J,17.9001383,59.3924707,3.3
74920766,15.033333333333331,12.966666666666669,13.725,,13.908333333333333,Kommunal,Stockholm,Mariehällsskolan,Tappvägen 23,16872,Bromma,https://grundskola.stockholm/hitta-grundskola/grundskola/mariehallsskolan-f-6/,J,17.9503514,59.3631279,3.5
75505688,13.816666666666668,8.533333333333333,11.883333333333333,9.55,10.945833333333333,Kommunal,Södertälje,Igelsta grundskola,Korpuddsvägen 9-11,15257,Södertälje,http://www.sodertalje.se/igelstagrundskola,J,17.6600399,59.1837709,5.0
75527289,14.025,11.7,12.166666666666666,,12.630555555555555,Enskild,Haninge,Västerhaninge Montessoriskola,Klockargatan 15,13738,Västerhaninge,http://www.ugglan.net,J,18.1023062,59.1216806,3.8
75580959,14.799999999999999,12.733333333333334,13.758333333333333,,13.763888888888888,Kommunal,Botkyrka,Rikstens skola,Flygarvägen 5,14637,Tullinge,http://www.botkyrka.se/rikstensskola,J,17.9088705,59.18633269999999,3.2
75614609,17.425,14.833333333333334,14.791666666666666,,15.683333333333332,Kommunal,Stockholm,Södermalmsskolan,Timmermansgatan 21,11855,Stockholm,https://grundskola.stockholm/hitta-grundskola/grundskola/sodermalmsskolan-f-9/,J,18.0606043,59.31786619999999,2.8
75656508,17.208333333333332,14.0,14.9,,15.369444444444445,Enskild,Stockholm,Vasastans Montessoriskola,Hälsingegatan 23-25,11331,Stockholm,http://www.vasastansmontessoriskola.se,J,18.0414195,59.3436081,4.2
75834458,16.2125,14.85,14.2625,,15.108333333333334,Kommunal,Nacka,Björknässkolan,Björknäs Skolväg 15,13244,Saltsjö-Boo,http://www.bjorknas.nacka.se,J,18.2370009,59.31270859999999,2.9
76400478,13.941666666666665,10.2,11.566666666666668,,11.902777777777779,Kommunal,Haninge,Runstensskolan,Eskilsvägen 8,13643,Handen,http://haninge.se/forskola-och-skola/grundskola/,J,18.1483311,59.16699810000001,
76440567,14.141666666666666,9.666666666666666,12.091666666666667,11.5,11.85,Kommunal,Haninge,Kvarnbäcksskolan,Mostensvägen 4,13768,Jordbro,http://haninge.se/forskola-och-skola/grundskola/,J,18.140449,59.1489124,3.3
76550010,15.175,11.6,15.0,,13.924999999999999,Kommunal,Upplands-Bro,Tjustaskolan,Tjusta Skolväg 11,19793,Bro,http://www.upplands-bro.se/barn-och-utbildning/barn-och-unga-6-16-ar/kommunala-skolor/tjustaskolan.html,J,17.630463,59.59998599999999,4.0
76952966,15.208333333333334,12.9,14.758333333333333,,14.28888888888889,Kommunal,Stockholm,Skanskvarnsskolan,Gullmarsvägen 60,12039,Årsta,https://grundskola.stockholm/hitta-grundskola/grundskola/skanskvarnsskolan-f-6/,J,18.0693202,59.3005331,4.3
77314942,17.125,15.833333333333334,15.175000000000002,,16.044444444444448,Kommunal,Stockholm,Norra Ängby skola,Vultejusvägen 20,16856,Bromma,https://grundskola.stockholm/hitta-grundskola/grundskola/norra-angby-skola-f-6/,J,17.9077234,59.3488809,3.7
77370320,18.125,16.0,16.575,,16.900000000000002,Kommunal,Täby,Ytterbyskolan,Ytterby Skolgränd 6,18338,Täby,http://www.taby.se/ytterbyskolan,J,18.0621521,59.43559489999999,4.3
77624936,14.324999999999998,11.466666666666667,11.991666666666667,,12.594444444444443,Kommunal,Upplands Väsby,Runby skola,Lövstavägen 1,19447,Upplands Väsby,http://www.upplandsvasby.se/runbyskolor,J,17.883068,59.5230596,3.1
77656740,9.655555555555555,8.433333333333334,,8.75,8.946296296296296,Enskild,Stockholm,Rosholmen Education Academy AB,Vårbergsvägen 63B,12743,Skärholmen,http://www.anfs.se,J,17.8855093,59.2720846,
78491090,14.258333333333333,10.666666666666666,12.449999999999998,8.075,11.362499999999997,Kommunal,Sigtuna,Tingvallaskolan,Tingvallavägen 44,19533,Märsta,http://www.sigtuna.se/tingvallaskolan,J,17.8279312,59.62659419999999,4.5
78508835,17.6,14.233333333333334,16.55,,16.12777777777778,Enskild,Stockholm,Sverigefinska skolan Sthlm,Fridhemsgatan 17-19,11240,Stockholm,http://www.sverigefinskaskolan.eu,J,18.0273403,59.3325218,4.5
78703073,12.591666666666667,10.433333333333332,12.316666666666668,,11.780555555555557,Kommunal,Nynäshamn,Sunnerbyskolan 3-6,Carl Bondes väg 12,14871,Sorunda,http://www.nynashamn.se/sunnerbyskolan,N,17.826844,59.0198626,3.2
78918091,16.375000000000004,15.299999999999999,14.758333333333333,,15.47777777777778,Kommunal,Täby,Kyrkskolan,Skolvägen 18A,18770,Täby,http://www.taby.se/kyrkskolan,J,18.0555266,59.4909686,3.0
79012683,12.625,9.133333333333335,13.25,6.441666666666667,10.3625,Kommunal,Huddinge,Annerstaskolan,Ortopedvägen 4,14153,Huddinge,http://www.huddinge.se/annerstaskolan,J,17.9434609,59.2226727,4.0
79093755,17.691666666666666,13.766666666666666,13.275,,14.911111111111111,Enskild,Järfälla,Internationella Engelska Skolan Järfälla,Hästskovägen 76,17739,Järfälla,http://www.engelska.se,N,17.8414605,59.4274961,4.1
79466321,14.0,11.533333333333331,12.174999999999997,,12.569444444444443,Kommunal,Södertälje,Hölöskolan,Eriksbergsvägen 9,15371,Hölö,http://www.sodertalje.se/holoskolan,J,17.5446606,59.022988,3.0
79969356,18.916666666666668,13.366666666666667,15.533333333333333,,15.938888888888888,Enskild,Stockholm,Europaskolan,Gotlandsgatan 43,11665,Stockholm,http://www.europaskolan.nu,J,18.0771851,59.30985339999999,3.0
80274643,14.775,11.15,14.5625,,13.495833333333332,Kommunal,Sigtuna,Skepptuna skola,Skepptuna skola,19593,Märsta,http://www.sigtuna.se/skepptunaskola,J,18.1119264,59.7068768,5.0
80378022,15.125,11.033333333333333,13.462499999999999,10.016666666666667,12.409374999999999,Enskild,Botkyrka,Botkyrka Friskola F-9,S:t Botvids väg 28,14565,Norsborg,http://www.botfri.se,J,17.8187578,59.23956130000001,5.0
80509560,18.474999999999998,12.1,13.399999999999999,,14.658333333333331,Enskild,Upplands Väsby,Engelska skolan Upplands Väsby,Ryttargatan 275,19471,Upplands Väsby,http://www.sprakskolanvasby.se,J,17.9088091,59.5071314,3.2
80612612,17.35,14.85,14.3,,15.5,Kommunal,Stockholm,Kristinebergsskolan,Nordenflychtsvägen 20-22,11251,Stockholm,https://grundskola.stockholm/hitta-grundskola/grundskola/kristinebergsskolan-f-6/,J,18.0048469,59.3330299,3.8
80746043,13.733333333333334,10.533333333333333,12.658333333333333,,12.308333333333332,Kommunal,Haninge,Ribbybergsskolan,Floraplan 1,13738,Västerhaninge,http://haninge.se/forskola-och-skola/grundskola/,J,18.0981483,59.1143314,3.0
81266343,16.233333333333334,12.933333333333332,14.108333333333334,,14.424999999999999,Enskild,Stockholm,Kunskapsskolan Tyresö,Solkraftsvägen 15,13570,Stockholm,https://www.kunskapsskolan.se,N,18.1925725,59.2357945,4.2
81396509,17.683333333333334,16.799999999999997,16.558333333333334,,17.01388888888889,Enskild,Stockholm,Innovitaskolan Banérporten,Karlavägen 121,11526,Stockholm,https://innovitaskolan.se/banerporten/,J,18.1005169,59.3357474,4.2
81680693,13.333333333333334,10.233333333333333,12.691666666666668,,12.08611111111111,Kommunal,Haninge,HagaLyckebyskolan,Kaptensvägen 25,13670,Vendelsö,http://haninge.se/forskola-och-skola/grundskola/,J,18.1928034,59.1922315,3.0
81857869,17.083333333333332,15.300000000000002,14.816666666666668,,15.733333333333334,Kommunal,Lidingö,Skärsätra skola,Parkvägen 18,18160,Lidingö,https://www.lidingo.se/skarsatraskola,J,18.1761221,59.3451207,3.4
82047013,16.09166666666667,15.566666666666668,14.358333333333334,,15.33888888888889,Kommunal,Nacka,Älta skola,Ältavägen 183-185,13837,Älta,http://www.alta.nacka.se,J,18.1844192,59.26189609999999,4.0
82075850,14.591666666666667,12.700000000000001,12.333333333333334,,13.208333333333334,Kommunal,Stockholm,Skarpatorpsskolan,Pilvingegatan 34,12835,Skarpnäck,https://grundskola.stockholm/hitta-grundskola/grundskola/skarpatorpsskolan-f-9/,J,18.1291003,59.26923389999999,3.3
82110758,12.991666666666667,9.333333333333334,12.691666666666668,8.950000000000001,10.991666666666669,Kommunal,Stockholm,Hagsätraskolan,Glanshammarsgatan 11-15,12470,Bandhagen,https://grundskola.stockholm/hitta-grundskola/grundskola/hagsatraskolan-f-9/,J,18.0173189,59.2643254,3.6
82137009,10.966666666666669,8.666666666666666,,9.208333333333334,9.613888888888889,Kommunal,Södertälje,Hovsjöskolan,Penselvägen 1,15165,Södertälje,http://www.sodertalje.se/hovsjoskolor,J,17.5989525,59.1756801,3.1
82624830,14.6,11.266666666666666,12.225,,12.697222222222223,Kommunal,Österåker,Solskiftesskolan,Solskiftesvägen 8,18433,Åkersberga,http://www.osteraker.se,N,18.3029691,59.5018156,2.6
82838118,9.274999999999999,5.199999999999999,6.85,3.0,6.081249999999999,Enskild,Stockholm,Alla Nationers Fria Skola,Vårbergsvägen 63B,12743,Skärholmen,http://www.anfs.se,J,17.8862471,59.27159519999999,1.6
82854505,14.408333333333333,11.5,13.041666666666666,,12.983333333333333,Enskild,Stockholm,Martinskolan Söders waldorfskola,Munstycksvägen 18,12357,Farsta,http://www.martinskolan.se,J,18.0796264,59.25172500000001,3.4
82982309,17.858333333333334,12.266666666666666,12.683333333333332,11.5,13.577083333333333,Enskild,Stockholm,Internationella Engelska Skolan Kista,Isafjordsgatan 39,16440,Kista,http://www.engelska.se,N,17.9460728,59.4054621,2.7
83020784,15.783333333333333,12.766666666666666,14.808333333333332,,14.452777777777776,Kommunal,Tyresö,Tyresö skola,Tyresövägen 6,13561,Tyresö,http://www.tyreso.se,J,18.292938,59.2410634,3.2
83584296,18.474999999999998,14.733333333333334,13.583333333333334,,15.597222222222221,Enskild,Stockholm,Internationella Engelska Skolan Älvsjö,Armborstvägen 1,12544,Älvsjö,http://www.engelska.se,N,18.0056533,59.28086779999999,3.0
83623446,16.51666666666667,15.266666666666666,14.966666666666667,,15.583333333333334,Kommunal,Täby,Rösjöskolan,Forsvägen 1,18742,Täby,http://www.taby.se/rosjoskolan,J,18.0240293,59.4448737,3.2
83735665,10.8625,7.85,,10.3125,9.674999999999999,Enskild,Sollentuna,Stockholm International Academy Häggvik,Häggviksvägen 2,19150,Sollentuna,http://www.mubarak.se,J,17.9394638,59.4459701,5.0
83810698,12.808333333333332,10.366666666666667,,12.025,11.733333333333333,Kommunal,Stockholm,Elinsborgsskolan,Mellingebacken 22,16367,Spånga,https://grundskola.stockholm/hitta-grundskola/grundskola/elinsborgsskolan-f-6/,J,17.9036502,59.397499,4.3
83828066,16.725,15.366666666666665,15.633333333333333,,15.908333333333333,Kommunal,Stockholm,Nya Elementar,Bergslagsvägen 80,16855,Bromma,https://grundskola.stockholm/hitta-grundskola/grundskola/nya-elementar-f-9/,J,17.9246975,59.34274180000001,3.0
84103650,14.174999999999999,11.5,12.0,,12.558333333333332,Kommunal,Vallentuna,Kårsta skola,Bergsjövägen 1,18660,Vallentuna,http://www.vallentuna.se/karsta/,J,18.275651,59.6539125,3.7
84411355,15.058333333333335,11.166666666666666,13.558333333333332,,13.261111111111111,Enskild,Botkyrka,Kunskapsskolan Tumba,Hans Stahles väg 17,14741,Tumba,https://www.kunskapsskolan.se,N,17.8503443,59.20027049999999,3.7
84584068,14.25,13.299999999999999,14.325000000000001,,13.958333333333334,Kommunal,Norrtälje,Frötuna skola,Björnövägen 111-115,76197,Norrtälje,http://www.norrtalje.se,J,18.7620741,59.7354098,
84585645,14.433333333333332,12.866666666666667,11.141666666666666,,12.813888888888888,Enskild,Solna,Hagaskolan ,Frösundaviks allé 15 ,16970,Solna,http://www.waldorfskolan.se,J,18.0302723,59.36882909999999,4.4
84704913,14.241666666666667,11.566666666666668,13.15,,12.986111111111112,Kommunal,Tyresö,Krusboda skola,Krusboda Torg 14,13535,Tyresö,http://www.tyreso.se,J,18.2531086,59.22945480000001,2.1
84884375,16.458333333333332,15.766666666666666,14.891666666666666,,15.705555555555554,Kommunal,Nacka,Myrsjöskolan,Mensättravägen 42,13231,Saltsjö-Boo,http://www.myrsjo.nacka.se,J,18.268441,59.3332707,4.0
85321366,16.366666666666667,13.766666666666666,14.049999999999999,,14.727777777777776,Kommunal,Nacka,Skuru skola,Skuru Skolväg 2,13147,Nacka,http://www.skolor.nacka.se/skuru,J,18.2084817,59.3126592,2.4
85440729,13.975000000000001,10.9,14.100000000000001,,12.991666666666667,Kommunal,Sollentuna,Häggvik- Skälbyskolan ,Sollentunavägen 267 C,19124,Sollentuna,http://www.sollentuna.se/sv/skola--forskola/grundskola/skolor/haggviks-skolor/,J,17.9379346,59.4425968,5.0
85558618,14.616666666666665,11.133333333333335,12.458333333333334,13.3,12.877083333333335,Kommunal,Botkyrka,Falkbergsskolan,Östanvägen 12 A,14640,Tullinge,http://www.botkyrka.se/falkbergsskolan,N,17.8982907,59.2054288,2.6
85777315,14.858333333333334,10.533333333333333,14.550000000000002,11.8,12.935416666666669,Enskild,Sollentuna,Mikaelskolan,Ebba Brahes väg 1,19269,Sollentuna,http://www.mikaelskolan.se,J,17.9093671,59.4775131,3.3
85796724,13.916666666666666,8.9,12.949999999999998,,11.922222222222222,Enskild,Upplands-Bro,Källskolan 6-9,Skolvägen 20 E,19634,Kungsängen,http://www.kallskolan.se,N,17.7349766,59.4805779,3.8
86337537,14.341666666666667,9.766666666666666,12.508333333333335,7.999999999999999,11.154166666666667,Kommunal,Stockholm,Maltesholmsskolan,Persikogatan 44-46,16563,Hässelby,https://grundskola.stockholm/hitta-grundskola/grundskola/maltesholmsskolan-f-6/,J,17.8320916,59.3622178,4.0
86597125,15.833333333333334,13.833333333333334,13.050000000000002,,14.238888888888889,Kommunal,Stockholm,Hässelby Villastads skola,Riddersviksvägen 132,16572,Hässelby,https://grundskola.stockholm/hitta-grundskola/grundskola/hasselby-villastads-skola-f-9/,J,17.8114668,59.37882459999999,2.9
86831724,16.108333333333334,14.1,13.800000000000002,,14.669444444444446,Kommunal,Nacka,Igelboda skola,Vinterbrinksvägen 4,13332,Saltsjöbaden,http://www.igelboda.nacka.se,J,18.2763624,59.286672,4.1
86917350,11.25,4.3,12.924999999999999,,9.491666666666667,Kommunal,Norrtälje,Köpmanholms skola,Lilltorpsvägen 31-35,76018,Yxlan,https://www.norrtalje.se/info/barn-och-skola/grundskola/grundskolor/kopmanholms-skola/,J,18.930196,59.65526509999999,3.7
86937935,15.549999999999999,14.566666666666668,14.066666666666668,,14.72777777777778,Kommunal,Nacka,Sågtorpsskolan,Boo Kyrkväg 5,13236,Saltsjö-Boo,http://www.sagtorp.nacka.se,J,18.2896976,59.3350774,2.8
86985859,13.916666666666666,10.433333333333334,12.183333333333332,,12.177777777777777,Kommunal,Botkyrka,Malmsjö skola,Ringvägen 1A,14770,Grödinge,http://www.botkyrka.se/malmsjoskola,J,17.79375,59.1660292,3.4
87382179,16.55,14.766666666666666,15.783333333333333,,15.700000000000001,Enskild,Sigtuna,Väringaskolan,Skolbacken 81,19330,Sigtuna,http://www.varingaskolan.se,J,17.7255361,59.62211180000001,3.3
87425546,16.358333333333334,14.466666666666667,15.133333333333333,,15.319444444444445,Enskild,Nacka,Kunskapsskolan Nacka,Helgesons väg 10,13137,Nacka,https://www.kunskapsskolan.se,N,18.1430488,59.3095532,4.7
87521048,17.341666666666665,15.5,15.133333333333335,,15.991666666666667,Kommunal,Stockholm,Engelbrektsskolan,Valhallavägen 76,11427,Stockholm,https://grundskola.stockholm/hitta-grundskola/grundskola/engelbrektsskolan-f-9/,J,18.070627,59.3454498,3.4
87665835,16.175,14.0,15.291666666666666,,15.155555555555557,Kommunal,Tyresö,Strandskolan,Lagergrens väg 16,13563,Tyresö,http://www.tyreso.se,J,18.2853201,59.24350399999999,
87838841,12.241666666666667,11.033333333333331,10.3875,8.8875,10.6375,Kommunal,Stockholm,Hässelbygårdsskolan,Loviselundsvägen 10-16,16559,Hässelby,https://grundskola.stockholm/hitta-grundskola/grundskola/hasselbygardsskolan-f-9/,J,17.8407053,59.36877239999999,3.1
87920455,13.9,12.133333333333333,12.85,,12.96111111111111,Kommunal,Stockholm,Skönstaholmsskolan,Lördagsvägen 20,12360,Farsta,https://grundskola.stockholm/hitta-grundskola/grundskola/skonstaholmsskolan-f-6/,J,18.0957722,59.2582694,3.4
87999453,15.8875,13.600000000000001,14.525,,14.670833333333334,Enskild,Stockholm,Thea Privata Grundskola Bromma,Voltavägen 8,16869,Bromma,http://www.theagrundskola.se/,N,17.9694664,59.34574670000001,2.0
88283203,15.049999999999999,13.666666666666666,13.566666666666668,,14.094444444444443,Kommunal,Värmdö,Ösbyskolan,Ösby skolväg 4,13443,Gustavsberg,http://www.varmdo.se,J,18.4164565,59.3182561,4.6
88712672,14.008333333333335,11.933333333333332,13.75,8.649999999999999,12.085416666666665,Kommunal,Österåker,Söraskolan,Luffarbacken 82,18437,Åkersberga,http://www.osteraker.se,J,18.31014,59.4789324,3.2
88795871,16.26666666666667,15.5,14.958333333333334,,15.575000000000001,Kommunal,Stockholm,Södra Ängby skola,Blackebergsvägen 100,16851,Bromma,https://grundskola.stockholm/hitta-grundskola/grundskola/sodra-angby-skola-f-9/,J,17.8916673,59.34477649999999,3.2
89317818,16.5,15.866666666666667,15.016666666666666,,15.794444444444444,Kommunal,Danderyd,Kyrkskolan,Klockar Malms väg 19-21,18234,Danderyd,https://www.danderyd.se/skolor/kyrkskolan/,J,18.0347847,59.4052666,3.5
89424201,18.016666666666666,14.700000000000001,17.175,,16.630555555555556,Enskild,Täby,Spirande lärande i Täby AB,Eskadervägen 10,18354,Täby,http://www.spiraskolan.se,J,18.09379,59.4304377,
89510449,16.291666666666668,14.966666666666667,14.758333333333335,,15.338888888888889,Kommunal,Huddinge,Kungsklippeskolan,Segersminnesvägen 8 A,14140,Huddinge,http://www.huddinge.se/kungsklippeskolan,J,18.0008625,59.2521202,4.1
89605548,13.758333333333333,10.933333333333332,14.15,,12.947222222222221,Kommunal,Stockholm,Trollbodaskolan,Pilörtsgränd 5,16576,Hässelby,https://grundskola.stockholm/hitta-grundskola/grundskola/trollbodaskolan-f-9/,J,17.8093953,59.3841841,2.6
89692072,15.449999999999998,11.966666666666667,14.141666666666666,,13.852777777777776,Enskild,Norrtälje,Freinetskolan Hugin,Lilla Brogatan 10,76130,Norrtälje,http://www.freinetskolanhugin.se,J,18.7049452,59.7584405,4.3
89701816,11.433333333333332,13.333333333333334,12.225000000000001,10.875,11.966666666666667,Kommunal,Huddinge,Kästaskolan,Hälsovägen 33,14152,Huddinge,http://grundskolor.huddinge.se/kastaskola/,J,17.930814,59.2257706,3.4
90537318,13.108333333333333,9.766666666666667,12.383333333333333,,11.752777777777778,Kommunal,Haninge,Vikingaskolan,Sleipnervägen 2,13652,Handen,http://haninge.se/forskola-och-skola/grundskola/,J,18.1486213,59.1634874,3.7
90561266,17.433333333333334,15.699999999999998,15.641666666666666,,16.258333333333333,Kommunal,Stockholm,Hedvig Eleonora skola,Linnégatan 54,11454,Stockholm,https://grundskola.stockholm/hitta-grundskola/grundskola/hedvig-eleonora-skola-f-6/,J,18.0852241,59.33611380000001,2.0
90711097,14.766666666666667,10.699999999999998,,10.533333333333333,12.0,Enskild,Stockholm,Jacobiskolan,Kirunagatan 22-28,16268,Vällingby,http://www.alazharskolan.com,J,17.8659371,59.36470019999999,3.6
90719952,13.15,,14.625,,13.8875,Kommunal,Norrtälje,Edsbro skola,Kyrkvägen 10,76298,Edsbro,http://www.norrtalje.se,J,18.4949332,59.8954813,
90732940,18.841666666666665,14.633333333333335,16.974999999999998,,16.816666666666666,Enskild,Stockholm,Internationella Engelska Skolan Bromma,Riksbyvägen 40-48,16874,Bromma,http://www.engelska.se,N,17.9445141,59.3426059,4.1
90850620,16.858333333333334,15.566666666666668,14.85,,15.758333333333335,Enskild,Stockholm,Grundskolan Metapontum,Stora Mans väg 11 C,12559,Älvsjö,http://www.metapontum.se,J,17.9764182,59.2803393,3.5
90886859,14.908333333333331,13.366666666666667,12.899999999999999,,13.725,Kommunal,Huddinge,Utsäljeskolan,Gamla Stockholmsvägen 85,14132,Segeltorp,http://www.huddinge.se/utsaljeskolan,J,17.953455,59.25055689999999,3.1
91067048,17.200000000000003,16.85,14.675,,16.24166666666667,Enskild,Nacka,Ebba Braheskolan,Kvarnholmsvägen 89,13131,Nacka,http://www.ebbabraheskolan.se,J,18.1409493,59.3158678,
91352227,14.283333333333333,12.866666666666667,13.708333333333334,,13.619444444444445,Enskild,Stockholm,Studemaskolan,Kallforsvägen 40,12432,Bandhagen,http://www.studema.se,J,18.0464269,59.2719153,4.5
91816093,16.075,14.266666666666666,14.4,,14.91388888888889,Kommunal,Stockholm,Sturebyskolan,Bastuhagsvägen 20,12242,Enskede,https://grundskola.stockholm/hitta-grundskola/grundskola/sturebyskolan-f-9/,J,18.0452063,59.27672020000001,3.6
92007673,14.983333333333334,11.766666666666666,12.666666666666666,,13.138888888888888,Kommunal,Stockholm,Västertorpsskolan,Störtloppsvägen 2,12946,Hägersten,https://grundskola.stockholm/hitta-grundskola/grundskola/vastertorpsskolan-f-6/,J,17.9696914,59.29158049999999,3.4
92284588,15.408333333333331,12.933333333333332,13.425000000000002,,13.922222222222222,Kommunal,Upplands-Bro,Ekhammarskolan,Skolvägen 20,19634,Kungsängen,http://www.upplands-bro.se/barn-och-utbildning/barn-och-unga-6-16-ar/kommunala-skolor/ekhammarskolan.html,N,17.7363492,59.48110750000001,2.2
92347699,15.341666666666669,12.966666666666667,13.950000000000001,10.649999999999999,13.227083333333335,Kommunal,Stockholm,Bromstensskolan,Carl Barks väg 10,16343,Spånga,https://grundskola.stockholm/hitta-grundskola/grundskola/bromstensskolan-f-6/,J,17.9193446,59.37586599999999,3.3
92406445,13.408333333333333,9.5,11.674999999999999,8.816666666666666,10.849999999999998,Kommunal,Salem,Säbyskolan,Säbyhallsvägen 50,14430,Rönninge,https://www.salem.se/barn--utbildning/grundskola/grundskolor/sabyskolan/,J,17.7650058,59.20338580000001,3.3
