,SKOLENHETSKOD,English_avg_score,Math_avg_score,Swedish_avg_score,Swedish_as_a_second_language_avg_score,grand_avg_score,HUVUDMANNATYP,KOMMUNNAMN,SKOLENHETENS NAMN,BESÖKSADRESS,BESÖKSPOSTNR,BESÖKSPOSTORT,WEBB,FKLASS,lon,lat,Google_rating,point,median_kSEK,residual
0,10063280,14.125,9.833333333333334,12.308333333333332,,12.088888888888889,Enskild,Huddinge,Skapaskolan,Midsommarvägen 4,14144,Huddinge,http://www.skapaskolan.se,J,17.9604016,59.2336677,2.4,POINT (17.9604016 59.2336677),330.33,-1.173974140532163
1,10225038,15.550000000000002,14.133333333333333,12.983333333333334,,14.222222222222223,Kommunal,Huddinge,Solfagraskolan,Prästvägen 23-25,14131,Huddinge,http://www.huddinge.se/solfagraskolan,J,18.0093278,59.23936579999999,3.8,POINT (18.0093278 59.23936579999999),359.5333333333333,0.26159764762970816
2,10360193,15.55,12.6,15.7,,14.616666666666667,Enskild,Stockholm,Profilskolan,"Krossgatan 34, plan 4",16250,Vällingby,http://www.profilskolan.se,J,17.8567362,59.37235159999999,3.5,POINT (17.8567362 59.37235159999999),308.2647058823529,1.8810144711067807
3,10661388,11.883333333333336,10.166666666666666,14.191666666666668,,12.080555555555556,Enskild,Södertälje,Örjanskolan grund,Nibble,15391,Järna,http://www.orjanskolan.se,J,17.6165051,59.0662909,3.8,POINT (17.6165051 59.0662909),325.0,-1.054956633695518
4,10715898,16.333333333333332,13.2,14.9,,14.81111111111111,Enskild,Österåker,Akers Friskola,Svampvägen 4,18438,Åkersberga,http://www.akersfriskola.se,J,18.3323781,59.4916248,4.0,POINT (18.3323781 59.4916248),341.76,1.2751486251904645
5,10998117,14.25,10.266666666666667,12.550000000000002,11.3,12.091666666666669,Kommunal,Sigtuna,Råbergsskolan,Nyborgsvägen 2 A,19571,Rosersberg,http://www.sigtuna.se/rabergsskolan,J,17.8904493,59.57986449999999,4.3,POINT (17.8904493 59.57986449999999),341.04999999999995,-1.4273316360418402
6,11018018,17.266666666666666,12.666666666666666,15.841666666666669,,15.258333333333333,Enskild,Stockholm,Pops Academy Östermalm,Valhallavägen 117 D/E,11531,Stockholm,https://www.popsacademy.se,N,18.0829139,59.3435183,4.1,POINT (18.0829139 59.3435183),386.6763157894737,0.6491756216848277
7,11025388,14.616666666666667,13.666666666666666,13.2,,13.827777777777778,Kommunal,Ekerö,Stenhamraskolan,Herman Palms Plan 3,17960,Stenhamra,http://www.ekero.se/stenhamraskola,J,17.6880374,59.33548210000001,4.1,POINT (17.6880374 59.33548210000001),358.65,-0.1117411228653662
8,11364996,16.691666666666666,13.2,14.158333333333331,,14.683333333333332,Enskild,Värmdö,Lemshaga Akademi,Lemshagavägen 5-15,13461,Ingarö,http://www.lemshaga.se,J,18.4010831,59.3002611,4.2,POINT (18.4010831 59.3002611),387.425,0.05628714828285197
9,11442396,12.5,9.266666666666666,11.0,8.787500000000001,10.388541666666669,Enskild,Stockholm,Stockholm International Academy Hägersten,Sulvägen 52,12640,Hägersten,http://www.mubarak.se,J,18.0074798,59.28439830000001,3.8,POINT (18.0074798 59.28439830000001),327.4333333333333,-2.805110681010973
10,11496096,18.01666666666667,15.166666666666666,16.916666666666668,,16.700000000000003,Enskild,Nacka,Kunskapsskolan Saltsjöbaden,Observatoriebacken 1,13336,Saltsjöbaden,https://www.kunskapsskolan.se,N,18.3041145,59.271994,4.0,POINT (18.3041145 59.271994),397.90000000000003,1.8226723795310402
11,11777750,16.25,13.666666666666666,14.483333333333333,,14.8,Kommunal,Nacka,Saltsjöbadens samskola,Samskolevägen 1,13334,Saltsjöbaden,http://www.samskolan.org,J,18.2823796,59.27805559999999,2.4,POINT (18.2823796 59.27805559999999),391.53999999999996,0.0746332319665104
12,11914814,14.283333333333331,11.0,12.425,8.325,11.508333333333333,Kommunal,Södertälje,Rosenborgskolan,Erik Dahlbergs väg 9,14185,Södertälje,http://www.sodertalje.se/rosenborgskolan,N,17.6365282,59.19800309999999,3.3,POINT (17.6365282 59.19800309999999),301.08181818181816,-1.0556965763898365
13,12092203,4.625,4.2,2.8,,3.875,Kommunal,Sollentuna,Brage- skola och språkförskola,Hertig Karls väg 5,19268,Sollentuna,http://www.talochsprakcentrum.se,J,17.9099571,59.47735900000001,3.7,POINT (17.9099571 59.47735900000001),342.54999999999995,-9.67983812639612
14,12187987,16.25,14.233333333333334,15.1,,15.194444444444445,Kommunal,Stockholm,Katarina Södra skola,Katarina Bangata 41,11639,Stockholm,https://grundskola.stockholm/hitta-grundskola/grundskola/katarina-sodra-skola-f-6/,J,18.0833334,59.31104240000001,3.7,POINT (18.0833334 59.31104240000001),372.7978723404254,0.9168873769775185
15,12332278,19.375,15.566666666666668,15.383333333333333,13.9,16.056250000000002,Enskild,Täby,Internationella Engelska Skolan Täby,Nytorpsvägen 7,18353,Täby,http://www.engelska.se,N,18.0764904,59.4355462,2.8,POINT (18.0764904 59.4355462),378.89166666666665,1.6330925897057096
16,12407147,16.0,8.55,11.95,,12.166666666666666,Kommunal,Österåker,Röllingbyskolan ,Hackstavägen 31,18494,Åkersberga,http://www.osteraker.se,J,18.2989331,59.48723989999999,,POINT (18.2989331 59.48723989999999),323.2727272727273,-0.9275754225804942
17,12757193,16.150000000000002,13.633333333333333,14.433333333333332,11.65,13.966666666666669,Enskild,Södertälje,Vittra Östertälje,Gärtunavägen 4,15257,Södertälje,http://www.vittra.se/sodertalje,J,17.6677034,59.1801987,4.1,POINT (17.6677034 59.1801987),301.90000000000003,1.3830877622048021
18,13124830,15.083333333333334,10.766666666666666,12.525,10.3625,12.184375,Kommunal,Stockholm,Sjöängsskolan,Gripsholmsvägen 29,12535,Älvsjö,https://grundskola.stockholm/hitta-grundskola/grundskola/sjoangsskolan-f-9/,J,18.0277711,59.28037029999999,3.6,POINT (18.0277711 59.28037029999999),334.5733333333334,-1.1798749084306728
19,13654969,15.475,13.4,12.858333333333334,,13.911111111111111,Kommunal,Huddinge,Balingsnässkolan,Lännavägen 80,14134,Huddinge,http://www.huddinge.se/balingsnasskolan,J,18.006904,59.22083949999999,3.0,POINT (18.006904 59.22083949999999),372.62,-0.3621960141426488
20,13665610,15.783333333333331,14.566666666666668,14.55,,14.966666666666669,Kommunal,Täby,Brinkskolan,Vallabrinksgränd 6,18750,Täby,http://www.taby.se/Brinkskolan,J,18.0470403,59.45933689999999,3.4,POINT (18.0470403 59.45933689999999),434.41428571428565,-0.7831046618549902
21,13679897,14.883333333333336,10.366666666666667,13.074999999999998,9.7,12.006249999999998,Kommunal,Stockholm,Bagarmossens skola,Rusthållarvägen 5,12841,Bagarmossen,https://grundskola.stockholm/hitta-grundskola/grundskola/bagarmossens-skola-f-9/,J,18.1279897,59.2799893,3.1,POINT (18.1279897 59.2799893),339.1857142857143,-1.4682045218396258
22,14040970,13.766666666666667,12.533333333333331,12.375,8.625,11.825,Kommunal,Nacka,Stavsborgsskolan,Flädervägen 4,13830,Älta,http://www.stavsborg.nacka.se,J,18.1733724,59.25600230000001,2.8,POINT (18.1733724 59.25600230000001),381.7857142857142,-2.6673055145677704
23,14121892,13.783333333333331,11.333333333333334,,10.175,11.763888888888888,Kommunal,Stockholm,Bredängsskolan,BredängsTorg 21,12732,Skärholmen,https://grundskola.stockholm/hitta-grundskola/grundskola/bredangsskolan-f-9/,J,17.9342386,59.2941464,2.3,POINT (17.9342386 59.2941464),299.80833333333334,-0.7697133725419221
24,14440920,14.066666666666668,12.3,12.216666666666669,7.65,11.558333333333334,Kommunal,Huddinge,Visättraskolan,Visättravägen 61-63,14135,Huddinge,http://www.huddinge.se/visattraskolan,J,17.9488271,59.2158262,4.5,POINT (17.9488271 59.2158262),231.2142857142857,0.6636634536933581
25,14472068,14.824999999999998,11.133333333333333,13.358333333333333,,13.105555555555554,Enskild,Stockholm,Kristna skolan,"Petrejusvägen 42, entré A1",12138,Johanneshov,http://www.kristnaskolan.se,J,18.1002342,59.29648329999999,4.9,POINT (18.1002342 59.29648329999999),378.9142857142857,-1.3181422965245044
26,14479858,15.475,14.0,14.283333333333331,,14.58611111111111,Kommunal,Stockholm,Tallkrogens skola,Torögatan 59-65,12265,Enskede,https://grundskola.stockholm/hitta-grundskola/grundskola/tallkrogens-skola-f-6/,J,18.0762197,59.27316629999999,3.3,POINT (18.0762197 59.27316629999999),369.8,0.3801828543900587
27,15049834,15.266666666666666,13.266666666666666,13.975,10.85,13.339583333333334,Kommunal,Sundbyberg,Lilla Alby skola,Humblegatan 19-23,17239,Sundbyberg,http://www.sundbyberg.se/lillaalbyskola,J,17.9683819,59.35849339999999,4.2,POINT (17.9683819 59.35849339999999),365.3666666666667,-0.7604183333776682
28,15080815,15.116666666666667,11.066666666666668,13.050000000000002,12.5,12.933333333333335,Kommunal,Järfälla,Fjällenskolan,Ekollongränd 1,17549,Järfälla,http://www.jarfalla.se,J,17.7936122,59.4029442,3.1,POINT (17.7936122 59.4029442),363.68333333333334,-1.1264480867949036
29,15218794,13.241666666666667,9.866666666666664,13.225,9.2,11.383333333333336,Kommunal,Huddinge,Glömstaskolan,Bergavägen 9,14132,Huddinge,https://www.huddinge.se/glomstaskolan,J,17.935496,59.2360408,2.6,POINT (17.935496 59.2360408),352.53333333333336,-2.4100387307169946
30,15312030,14.925,10.5,,,12.7125,Kommunal,Norrtälje,Wigulfskolan,Lommarvägen 43,76152,Norrtälje,http://www.norrtalje.se,J,18.6722983,59.76231899999999,4.0,POINT (18.6722983 59.76231899999999),277.62,0.7090483749615952
31,15331669,16.191666666666666,14.199999999999998,14.766666666666666,,15.052777777777775,Kommunal,Stockholm,Sjöstadsskolan,Hammarby Allé 74-76,12064,Stockholm,https://grundskola.stockholm/hitta-grundskola/grundskola/sjostadsskolan-f-9/,J,18.0966209,59.3036706,3.6,POINT (18.0966209 59.3036706),390.4833333333333,0.352658174430891
32,15339442,16.125,13.6,14.0125,,14.579166666666666,Kommunal,Sollentuna,Runbackaskolan,Kornettvägen 42,19273,Sollentuna,http://www.sollentuna.se/sv/uweb/runbacka-skolor/,J,17.8943936,59.4565369,4.1,POINT (17.8943936 59.4565369),417.64,-0.7698130335312552
33,15483394,14.958333333333334,12.866666666666664,13.425000000000002,,13.75,Kommunal,Huddinge,Segeltorpsskolan,Chronas väg 12,14147,Segeltorp,http://www.huddinge.se/segeltorpsskolan,N,17.9440887,59.2781388,3.1,POINT (17.9440887 59.2781388),357.175,-0.1542764073503271
34,15547680,16.525,15.75,14.475,,15.583333333333334,Enskild,Sollentuna,Vibyskolan,Kornettvägen 44,19273,Sollentuna,http://www.vibyskolan.se,J,17.8904515,59.4584018,3.6,POINT (17.8904515 59.4584018),439.90000000000003,-0.29750935038873294
35,15594566,17.474999999999998,15.9,16.183333333333334,,16.519444444444446,Kommunal,Stockholm,Äppelviksskolan,Alviksvägen 97,16753,Bromma,https://grundskola.stockholm/hitta-grundskola/grundskola/appelviksskolan-6-9/,N,17.9753001,59.3234513,4.0,POINT (17.9753001 59.3234513),441.07,0.6106466982460432
36,15697742,14.775,13.1,13.45,,13.775,Kommunal,Sigtuna,Galaxskolan,Uranusgatan 2,19556,Märsta,http://www.sigtuna.se/galaxskolan,J,17.8117782,59.61220579999999,1.8,POINT (17.8117782 59.61220579999999),292.49999999999994,1.4160173239804958
37,16061350,8.875,12.7,,7.0,9.525,Enskild,Stockholm,Apolloniaskolan,Stora Mans Väg 11B,12559,Älvsjö,http://www.betaschool.eu,J,17.9753307,59.280785,3.6,POINT (17.9753307 59.280785),381.2285714285714,-4.9539935800552275
38,16068461,15.441666666666668,12.366666666666667,13.3,,13.702777777777778,Enskild,Södertälje,Nyckelskolan,Ekensbergsgatan 34,15243,Södertälje,http://www.knippan.se,J,17.6398893,59.2064022,3.5,POINT (17.6398893 59.2064022),280.5125,1.6302150260617623
39,16348406,16.675,13.300000000000002,14.65,,14.875,Kommunal,Stockholm,Matteusskolan,Vanadisvägen 16,11346,Stockholm,https://grundskola.stockholm/hitta-grundskola/grundskola/matteusskolan-f-9/,J,18.0480606,59.347694,3.0,POINT (18.0480606 59.347694),403.06216216216217,-0.12566827496146082
40,16394249,14.8875,9.0,13.0375,,12.308333333333332,Enskild,Stockholm,Ellen Key skolan,Duvbovägen 94,16343,Spånga,http://www.eks.se,J,17.9184246,59.37816429999999,4.1,POINT (17.9184246 59.37816429999999),302.95,-0.30033344770986226
41,16426165,16.616666666666667,13.0,13.925000000000002,,14.513888888888893,Enskild,Stockholm,Kunskapsskolan Enskede,Enskedevägen 89,12263,Enskede,https://www.kunskapsskolan.se,N,18.0726161,59.2824779,3.0,POINT (18.0726161 59.2824779),376.83846153846156,0.13978915178751272
42,16762245,14.125,13.3,12.9,,13.441666666666668,Enskild,Botkyrka,Edessaskolan,Borgvägen 10,14568,Norsborg,http://www.edessaskolan.se,J,17.8245604,59.249201,5.0,POINT (17.8245604 59.249201),235.2230769230769,2.451213873611012
43,16969143,14.416666666666666,11.6,11.925,11.55,12.372916666666663,Kommunal,Upplands-Bro,Hagnässkolan,Hagnäsvägen 1-3,19637,Kungsängen,http://www.upplands-bro.se/barn-och-utbildning/barn-och-unga-6-16-ar/kommunala-skolor/hagnasskolan.html,N,17.7515764,59.5014586,3.2,POINT (17.7515764 59.5014586),343.08000000000004,-1.194584864099081
44,17165481,17.349999999999998,15.6,15.733333333333334,,16.227777777777778,Kommunal,Stockholm,Brotorpsskolan,Rusthållarvägen 225,12844,Bagarmossen,https://grundskola.stockholm/hitta-grundskola/grundskola/brotorpsskolan-f-6/,J,18.1423876,59.2739474,4.1,POINT (18.1423876 59.2739474),315.6166666666667,3.3164635967058693
45,17957898,15.291666666666666,9.766666666666666,12.45,,12.502777777777778,Enskild,Haninge,Innovitaskolan Rudan,Bodekulls väg 1,13637,Handen,https://innovitaskolan.se/rudan/,J,18.1324536,59.1608985,3.4,POINT (18.1324536 59.1608985),302.2099999999999,-0.0882080235795275
46,18064456,13.966666666666669,12.133333333333336,13.408333333333331,,13.169444444444444,Kommunal,Stockholm,Söderholmsskolan,Våruddsringen 202,12741,Skärholmen,https://grundskola.stockholm/hitta-grundskola/grundskola/soderholmsskolan-f-6/,J,17.8764459,59.2768434,3.0,POINT (17.8764459 59.2768434),259.4555555555555,1.5999998102542339
47,18193338,15.583333333333334,14.766666666666667,15.4,,15.25,Kommunal,Nynäshamn,Svandammsskolan F-6,Järnvägsgatan 9,14931,Nynäshamn,http://www.nynashamn.se/svanis,J,17.941199,58.8980513,,POINT (17.941199 58.8980513),292.3666666666666,2.894203086086062
48,18534178,12.033333333333331,7.366666666666667,11.0,7.891666666666666,9.572916666666666,Kommunal,Botkyrka,Storvretskolan,Odlingsvägen 36,14750,Tumba,http://www.botkyrka.se/storvretsskolan,J,17.8435232,59.1911146,3.6,POINT (17.8435232 59.1911146),284.3857142857143,-2.592189629785574
49,19353396,14.800000000000002,11.6,10.741666666666667,,12.380555555555556,Kommunal,Stockholm,Fruängens skola,Fruängsgatan 57-61,12953,Hägersten,https://grundskola.stockholm/hitta-grundskola/grundskola/fruangens-skola-f-9/,J,17.9625708,59.28473529999999,2.8,POINT (17.9625708 59.28473529999999),351.95789473684215,-1.3990674299339148
50,19942197,17.191666666666666,15.766666666666666,15.416666666666666,,16.124999999999996,Kommunal,Stockholm,Sandåkraskolan,Pepparkaksgränd 2-4,12866,Sköndal,https://grundskola.stockholm/hitta-grundskola/grundskola/sandakraskolan-f-6/,J,18.1155086,59.26062439999999,,POINT (18.1155086 59.26062439999999),325.425,2.9793331940374337
51,20054868,14.25,11.5,14.833333333333334,,13.52777777777778,Kommunal,Sigtuna,Odensala skola,Odensala skola,19592,Märsta,http://www.sigtuna.se/odensalaskolan,J,17.8453734,59.6651986,3.4,POINT (17.8453734 59.6651986),355.4,-0.3340881715422057
52,20137688,16.891666666666666,14.033333333333331,14.125,,15.016666666666666,Kommunal,Lidingö,Käppala skola,Killingevägen 13,18165,Lidingö,https://www.lidingo.se/kappalaskola,J,18.2102008,59.3548305,2.4,POINT (18.2102008 59.3548305),408.9,-0.12348632751144173
53,20253736,17.083333333333332,15.266666666666666,15.633333333333336,,15.994444444444442,Kommunal,Sollentuna,Tegelhagens skola,Skogstorpsvägen 370,19139,Sollentuna,https://www.sollentuna.se/uweb/tegelhagens-skola/,J,17.9817558,59.40890609999999,4.3,POINT (17.9817558 59.40890609999999),432.1666666666667,0.298375962845169
54,20561651,16.141666666666666,15.466666666666669,13.816666666666668,,15.141666666666667,Kommunal,Stockholm,Herrängens skola,Konvaljestigen 15,12555,Älvsjö,https://grundskola.stockholm/hitta-grundskola/grundskola/herrangens-skola-f-6/,J,17.9728496,59.2756477,3.4,POINT (17.9728496 59.2756477),411.0642857142857,-0.05019807311784952
55,20683111,14.691666666666668,9.766666666666666,12.558333333333332,10.25,11.816666666666666,Kommunal,Stockholm,Bäckahagens skola,Skebokvarnsvägen 55,12433,Bandhagen,https://grundskola.stockholm/hitta-grundskola/grundskola/backahagens-skola-f-9/,J,18.0438558,59.2680005,3.2,POINT (18.0438558 59.2680005),324.6533333333333,-1.3105625411099364
56,21346638,17.599999999999998,15.033333333333331,15.308333333333332,,15.980555555555554,Kommunal,Nacka,Järla skola,Järla Skolväg 21,13140,Nacka,http://www.jarla.nacka.se,J,18.1573289,59.3086439,3.3,POINT (18.1573289 59.3086439),399.8666666666667,1.0562379440295029
57,21576764,16.483333333333334,16.400000000000002,15.483333333333334,,16.122222222222224,Kommunal,Vaxholm,Söderfjärdsskolan,Johannesbergsvägen 2,18531,Vaxholm,http://www.vaxholm.se,J,18.3335564,59.40158849999999,4.6,POINT (18.3335564 59.40158849999999),368.04999999999995,1.9581070931367197
58,21724208,13.308333333333332,10.433333333333332,13.266666666666666,10.741666666666667,11.937499999999998,Kommunal,Stockholm,Sätraskolan,Bogsätravägen 46,12738,Skärholmen,https://grundskola.stockholm/hitta-grundskola/grundskola/satraskolan-f-9/,J,17.9184974,59.2848515,3.9,POINT (17.9184974 59.2848515),268.84166666666664,0.14379098758675646
59,21781901,13.541666666666666,11.133333333333333,12.183333333333332,,12.28611111111111,Kommunal,Upplands-Bro,Råbyskolan,Fågelvägen 5,19732,Bro,http://www.upplands-bro.se/barn-och-utbildning/barn-och-unga-6-16-ar/kommunala-skolor/rabyskolan.html,J,17.6380687,59.518738,4.0,POINT (17.6380687 59.518738),279.0,0.2496868482801009
60,21871265,18.35,16.166666666666668,16.59166666666667,,17.03611111111111,Kommunal,Sollentuna,Sollentuna musikklasser,Sollentunavägen 265-267,19136,Sollentuna,http://www.edu.sollentuna.se/smk,N,17.9353057,59.448805,3.3,POINT (17.9353057 59.448805),389.26666666666665,2.365061586977511
61,21997077,12.502777777777778,10.733333333333334,13.425,,12.22037037037037,Enskild,Sollentuna,Norra Strand Dibber,Kärleksbacken 3,19275,Sollentuna,http://www.dibber.se,J,17.9309435,59.4831356,2.0,POINT (17.9309435 59.4831356),339.6,-1.2639827694401173
62,22019000,16.224999999999998,13.033333333333331,13.716666666666669,,14.324999999999998,Enskild,Huddinge,Södertörns friskola,Björnkullaringen 42,14151,Huddinge,http://www.friskola.nu,N,17.9414803,59.2108072,4.5,POINT (17.9414803 59.2108072),297.67142857142863,1.8424552651717754
63,22030561,15.35,10.85,,12.9,13.033333333333331,Kommunal,Stockholm,Östbergaskolan,Östberga torg 2-8,12573,Älvsjö,https://grundskola.stockholm/hitta-grundskola/grundskola/ostbergaskolan-f-6/,J,18.0339326,59.2895225,2.8,POINT (18.0339326 59.2895225),341.96,-0.507407795745662
64,22127801,17.275,13.0,13.525,,14.6,Enskild,Huddinge,Internationella Engelska Skolan Länna,Lunnarevägen 1,14251,Skogås,http://www.engelska.se,N,18.14259,59.2093528,4.2,POINT (18.14259 59.2093528),299.81666666666666,2.0661986284375917
65,22472689,14.35,10.2,12.400000000000002,,12.316666666666668,Kommunal,Nacka,Jarlabergs skola,Jarlabergsvägen 5,13148,Nacka,http://www.jarlaberg.nacka.se,J,18.1680064,59.31541349999999,3.0,POINT (18.1680064 59.31541349999999),372.72499999999997,-1.9591492462452234
66,22513261,14.283333333333331,9.966666666666669,14.125,10.4,12.19375,Kommunal,Stockholm,Kista grundskola,Köpenhamnsgatan 11,16425,Kista,https://grundskola.stockholm/hitta-grundskola/grundskola/kista-grundskola-f-9-1/,J,17.9404282,59.40239039999999,3.3,POINT (17.9404282 59.40239039999999),268.84166666666664,0.4000409875867579
67,22777703,19.10833333333333,16.666666666666668,16.141666666666666,14.65,16.641666666666666,Kommunal,Stockholm,Johannes skola,Roslagsgatan 61,11354,Stockholm,https://grundskola.stockholm/hitta-grundskola/grundskola/johannes-skola-f-6/,J,18.0551833,59.3509282,3.0,POINT (18.0551833 59.3509282),398.3846153846153,1.7527600262370928
68,22807677,15.883333333333333,14.733333333333334,14.325,,14.980555555555556,Kommunal,Täby,Näsbydalskolan,Östra Banvägen 90,18337,Täby,http://www.taby.se/nasbydalskolan,N,18.0672759,59.44000579999999,3.3,POINT (18.0672759 59.44000579999999),370.34285714285716,0.7616566959761304
69,22847273,15.35,12.3,14.0,,13.883333333333333,Kommunal,Sundbyberg,Ängskolan   F-6,Vackra vägen 6-8,17240,Sundbyberg,http://www.sundbyberg.se/angskolan,J,17.9737346,59.3676809,3.1,POINT (17.9737346 59.3676809),360.8625000000001,-0.10904930724904105
70,22904289,16.633333333333333,14.033333333333331,16.333333333333332,,15.666666666666666,Kommunal,Nacka,Vilans skola,Danvikshemsvägen 4-6,13131,Nacka,http://www.vilan.nacka.se,J,18.1173596,59.31398970000001,3.2,POINT (18.1173596 59.31398970000001),383.7076923076923,1.128438916472792
71,23066257,17.375,12.666666666666666,14.975,,15.005555555555556,Enskild,Stockholm,Kulturama gr. Hammarby Sjöstad,Virkesvägen 21,10432,Stockholm,http://www.kulturama.se,N,18.0977757,59.3017755,4.4,POINT (18.0977757 59.3017755),392.65517241379314,0.2535437323943093
72,23312767,16.591666666666665,14.966666666666669,15.341666666666669,,15.633333333333333,Enskild,Täby,Noblaskolan Täby,Fjätursvägen 6,18746,Täby,https://noblaskolan.se/taby/,J,18.0326915,59.4523096,2.9,POINT (18.0326915 59.4523096),460.41428571428577,-0.7376616057735816
73,23617768,16.733333333333334,13.933333333333332,14.383333333333333,,15.016666666666666,Kommunal,Stockholm,Katarina Norra skola,Tjärhovsgatan 15-17,11621,Stockholm,https://grundskola.stockholm/hitta-grundskola/grundskola/katarina-norra-skola-f-9/,J,18.0803822,59.3158944,3.3,POINT (18.0803822 59.3158944),362.6333333333334,0.9819731231197544
74,23756252,14.908333333333331,12.933333333333332,13.608333333333334,,13.816666666666668,Kommunal,Österåker,Sjökarbyskolan,Sjökarbyvägen 24,18434,Åkersberga,http://www.osteraker.se,J,18.3167812,59.50004730000001,5.0,POINT (18.3167812 59.50004730000001),345.79999999999995,0.18417558894739194
75,24142153,16.349999999999998,14.133333333333333,14.475,,14.986111111111107,Enskild,Täby,Futuraskolan International Bergtorp,Viggbyholmsvägen 59,18369,Täby,http://www.futuraskolan.se,N,18.1024601,59.44723370000001,4.4,POINT (18.1024601 59.44723370000001),387.17272727272723,0.3650925327717278
76,24146389,11.758333333333333,8.833333333333334,11.466666666666669,7.9,9.989583333333334,Kommunal,Norrtälje,Hallsta skola,Skolvägen 15-17,76334,Hallstavik,http://www.norrtalje.se,J,18.5984676,60.05552280000001,3.4,POINT (18.5984676 60.05552280000001),232.25,-0.9298330912338013
77,24172067,15.65,14.533333333333331,14.8,,14.994444444444442,Enskild,Stockholm,Kulturskolan Raketen,Björkhagsplan 5-9,12153,Johanneshov,http://www.kulturskolanraketen.se,J,18.1170057,59.2911775,3.9,POINT (18.1170057 59.2911775),360.85625000000005,1.0022111364607689
78,24374886,13.283333333333331,11.1,14.862499999999995,10.416666666666666,12.415625,Enskild,Upplands Väsby,Vittra Väsby,Drabantgatan 3-5,19449,Upplands Väsby,http://www.vittra.se/vasby,J,17.9170596,59.5175577,3.7,POINT (17.9170596 59.5175577),296.27,-0.03343509955436552
79,24561769,14.441666666666665,11.933333333333332,12.683333333333332,,13.019444444444444,Kommunal,Värmdö,Hemmestaskolan,Motionsvägen 4,13932,Värmdö,http://www.varmdo.se,J,18.4861791,59.3200164,2.7,POINT (18.4861791 59.3200164),393.55,-1.753947687330447
80,24606968,14.041666666666666,13.333333333333334,14.5,,13.958333333333334,Kommunal,Upplands-Bro,Härneviskolan,Härnevi skolväg 10,19730,Bro,http://www.upplands-bro.se/barn-och-utbildning/barn-och-unga-6-16-ar/kommunala-skolor/harneviskolan.html,J,17.6340131,59.5136815,3.7,POINT (17.6340131 59.5136815),294.06666666666666,1.5619179525734364
81,24716970,16.26666666666667,12.3,14.425,,14.330555555555556,Kommunal,Stockholm,Högalidsskolan,Folkskolegatan 13,11735,Stockholm,https://grundskola.stockholm/hitta-grundskola/grundskola/hogalidsskolan-f-9/,J,18.0310805,59.31716050000001,3.5,POINT (18.0310805 59.31716050000001),384.6375,-0.22988829047544534
82,24754913,13.675,9.266666666666667,,10.808333333333332,11.25,Kommunal,Stockholm,Knutbyskolan,Knutbygränd 4,16373,Spånga,https://grundskola.stockholm/hitta-grundskola/grundskola/knutbyskolan-f-6/,J,17.9305462,59.38543929999999,,POINT (17.9305462 59.38543929999999),253.75238095238097,-0.18317745269858676
83,25253749,17.233333333333334,15.2,15.2,,15.87777777777778,Enskild,Lidingö,Albatross Montessoriskola,Larsbergsvägen 29,18138,Lidingö,http://www.albatross-montessori.se,J,18.1490444,59.34723499999999,3.4,POINT (18.1490444 59.34723499999999),351.3555555555556,2.112546612326609
84,25309669,15.858333333333334,11.766666666666666,11.975,,13.2,Enskild,Täby,Kunskapsskolan Täby,Källtorpsvägen 4,18371,Täby,http://www.kunskapsskolan.se,N,18.0792228,59.4341714,3.4,POINT (18.0792228 59.4341714),372.08181818181816,-1.0604482309367516
85,25506439,13.441666666666668,12.199999999999998,11.433333333333332,,12.358333333333333,Kommunal,Botkyrka,Kassmyraskolan,Sälgvägen 12,14733,Tumba,http://www.botkyrka.se/kassmyraskolan,J,17.8232472,59.1873301,3.6,POINT (17.8232472 59.1873301),308.28749999999997,-0.377863486998276
86,25555358,17.258333333333333,15.2,15.025,,15.827777777777778,Kommunal,Stockholm,Eiraskolan,Parmmätargatan 10,11224,Stockholm,https://grundskola.stockholm/hitta-grundskola/grundskola/eiraskolan-f-6/,J,18.0473948,59.3275415,3.2,POINT (18.0473948 59.3275415),400.01034482758627,0.9000272329483145
87,25772114,16.349999999999998,14.4,14.941666666666668,,15.230555555555556,Kommunal,Vaxholm,Vaxö skola,Lägergatan 9,18534,Vaxholm,http://www.vaxholm.se,J,18.3433605,59.40443310000001,3.8,POINT (18.3433605 59.40443310000001),368.88,1.0466090573629057
88,25918983,12.283333333333331,9.933333333333332,10.441666666666666,7.15,9.952083333333333,Kommunal,Botkyrka,Hammerstaskolan,Hallundavägen 199,14564,Norsborg,http://www.botkyrka.se/hammerstaskolan,J,17.8094228,59.24147110000001,3.6,POINT (17.8094228 59.24147110000001),226.96999999999997,-0.8411769118534114
89,26281697,15.1,9.766666666666667,14.775,,13.213888888888889,Enskild,Norrtälje,Montessoriskolan - Gustafslund,Stockholmsvägen 18-20,76143,Norrtälje,http://www.montessoriskolan.nu,N,18.6935995,59.754472,,POINT (18.6935995 59.754472),281.1,1.1272888728952246
90,26568390,14.175,8.833333333333334,12.308333333333332,,11.77222222222222,Enskild,Stockholm,Innovitaskolan Södermalms Högstadium,Vintertullstorget 2,11643,Stockholm,https://innovitaskolan.se/sodermalm/,N,18.0904988,59.30757629999999,2.6,POINT (18.0904988 59.30757629999999),382.4399999999998,-2.735716282106427
91,26852132,16.658333333333335,15.166666666666666,15.183333333333332,,15.669444444444444,Kommunal,Stockholm,Solhemsskolan,Sörgårdsvägen 40,16352,Spånga,https://grundskola.stockholm/hitta-grundskola/grundskola/solhemsskolan-f-6/,J,17.8911807,59.3808591,4.6,POINT (17.8911807 59.3808591),375.6454545454546,1.323849480868036
92,27273328,14.65,10.433333333333334,12.933333333333332,,12.672222222222222,Kommunal,Stockholm,Årstadalsskolan,Sjöviksbacken 19,11743,Stockholm,https://grundskola.stockholm/hitta-grundskola/grundskola/arstadalsskolan-f-6/,J,18.0311582,59.3048763,3.9,POINT (18.0311582 59.3048763),368.1944444444444,-1.4953441491443105
93,27323097,15.816666666666665,13.866666666666664,14.35,,14.677777777777775,Enskild,Solna,Noblaskolan Solna,Gustav III:s Boulevard 15,16972,Solna,https://noblaskolan.se/solna/,J,18.0147838,59.3686525,3.6,POINT (18.0147838 59.3686525),364.8588235294117,0.5899101167335612
94,27357778,14.716666666666669,14.633333333333336,16.3,12.858333333333334,14.627083333333337,Kommunal,Stockholm,Oxhagsskolan,Helsingforsgatan 4,16478,Kista,https://grundskola.stockholm/hitta-grundskola/grundskola/oxhagsskolan-f-6/,J,17.9199697,59.4126619,3.9,POINT (17.9199697 59.4126619),257.94666666666666,3.0936909069711067
95,27595656,15.95,13.733333333333334,14.675000000000002,,14.786111111111111,Enskild,Ekerö,Birkaskolan,Auroravägen 12,17832,Ekerö,http://www.birkaskolan.se,J,17.8048064,59.29108119999999,2.8,POINT (17.8048064 59.29108119999999),370.15999999999997,0.571581296705034
96,28231215,16.208333333333332,14.199999999999998,14.908333333333331,,15.105555555555554,Enskild,Ekerö,Drottningholmskolan,Skolallén 3,17893,Drottningholm,http://www.drottningholmskolan.se,J,17.8629939,59.3221696,4.0,POINT (17.8629939 59.3221696),349.2,1.391827544144359
97,28313791,14.341666666666669,11.566666666666668,12.8,,12.90277777777778,Kommunal,Huddinge,Tomtbergaskolan,Kommunalvägen 31 A,14148,Huddinge,http://www.huddinge.se/tomtbergaskolan,J,17.9912941,59.2405922,3.3,POINT (17.9912941 59.2405922),358.5153846153846,-1.0335247284318605
98,28799594,15.7625,13.65,15.0875,,14.833333333333334,Kommunal,Sollentuna,Kärrdalsskolan,Lomvägen 23,19256,Sollentuna,http://sites.google.com/a/edu.sollentuna.se/kdl/,J,17.9978618,59.4318575,4.9,POINT (17.9978618 59.4318575),420.87499999999994,-0.5929409199508662
99,29158808,16.175,13.766666666666666,14.591666666666669,,14.844444444444443,Kommunal,Stockholm,Observatorielundens skola,Sandåsgatan 2,11327,Stockholm,https://grundskola.stockholm/hitta-grundskola/grundskola/observatorielundens-skola-f-9/,J,18.0525426,59.3421582,2.3,POINT (18.0525426 59.3421582),412.73043478260877,-0.3872299545707243
100,29278599,15.741666666666667,12.733333333333334,13.058333333333332,,13.844444444444443,Kommunal,Vallentuna,Lovisedalsskolan,Uthamra skolväg 1 ,18653,Vallentuna,http://www.vallentuna.se/lovisedal/,J,18.062647,59.50989860000001,3.3,POINT (18.062647 59.50989860000001),417.7285714285714,-1.5066515120093165
101,29371242,17.224999999999998,15.866666666666664,15.2,,16.09722222222222,Enskild,Stockholm,Campus Manilla,Manillavägen 32-36,11521,Stockholm,http://www.campusmanilla.se,J,18.1333486,59.32346569999999,2.8,POINT (18.1333486 59.32346569999999),402.29999999999995,1.1147644522696023
102,29410344,16.366666666666667,14.1,14.6,,15.022222222222224,Kommunal,Stockholm,Kungsholmens grundskola,S:t Göransgatan 73,11238,Stockholm,http://www.kungsholmensgrundskola.stockholm.se/,J,18.0281804,59.333565,4.1,POINT (18.0281804 59.333565),406.9977272727272,-0.07247935918841186
103,29497099,17.4375,11.7,15.5125,10.175,13.70625,Enskild,Södertälje,Internationella Engelska Skolan Södertälje,Häradsvägen 10,15248,Södertälje,http://www.engelska.se,J,17.6363978,59.2122257,3.7,POINT (17.6363978 59.2122257),293.17142857142863,1.33122473623461
104,29524966,12.9375,8.0,,11.6375,10.858333333333334,Enskild,Botkyrka,Freinetskolan Kastanjen,Slagsta Gårdsväg 2,14574,Norsborg,http://www.kastanjen.nu,J,17.8460149,59.2530501,3.2,POINT (17.8460149 59.2530501),233.31,-0.08640989997304693
105,29705473,14.291666666666664,9.666666666666666,12.9,9.883333333333333,11.685416666666663,Kommunal,Stockholm,Snösätraskolan,Vallhornsgatan 21,12461,Bandhagen,https://grundskola.stockholm/hitta-grundskola/grundskola/snosatraskolan-f-6/,J,18.0330208,59.2561835,4.0,POINT (18.0330208 59.2561835),291.6333333333334,-0.6528585556666684
106,29725531,17.816666666666666,13.733333333333334,14.85,12.35,14.6875,Enskild,Stockholm,Engelska Skolan Norr,Roslagstullsbacken 4,11421,Stockholm,http://www.esn.se,J,18.0592348,59.3505912,3.6,POINT (18.0592348 59.3505912),395.9692307692307,-0.1436953345941383
107,29796042,14.733333333333334,10.766666666666666,12.925,,12.808333333333332,Enskild,Stockholm,Tornadoskolan AB,Gondolgatan 16. 3 tr,12832,Skarpnäck,http://www.tornadoskolan.se,J,18.1362341,59.2668093,3.6,POINT (18.1362341 59.2668093),341.31538461538463,-0.7170058612583716
108,30270791,13.291666666666666,9.366666666666667,11.966666666666669,7.475,10.525,Kommunal,Haninge,Åbyskolan,Bokstigen 14,13734,Västerhaninge,http://haninge.se/forskola-och-skola/grundskola/,J,18.1039063,59.1250942,1.0,POINT (18.1039063 59.1250942),311.38571428571424,-2.2852231228292332
109,31018677,14.791666666666666,8.233333333333333,11.783333333333331,7.483333333333332,10.572916666666666,Kommunal,Upplands Väsby,Väsby skola,Skolvägen 11,19476,Upplands Väsby,http://www.upplandsvasby.se/vasbyskola,J,17.9084579,59.5218304,3.6,POINT (17.9084579 59.5218304),288.5363636363636,-1.6913619903964854
110,31281674,14.15,10.533333333333331,14.9,,13.194444444444445,Kommunal,Tyresö,Nyboda skola,Pluggvägen 2,13546,Tyresö,http://www.tyreso.se,N,18.2287552,59.24025400000001,2.4,POINT (18.2287552 59.24025400000001),322.05384615384617,0.1293253447951912
111,31528772,14.775,10.033333333333331,15.966666666666669,,13.591666666666669,Enskild,Södertälje,Mariaskolan,Hjulåkersvägen 1,15332,Järna,http://www.mariaskolan.nu,J,17.5590833,59.0857395,2.7,POINT (17.5590833 59.0857395),323.05,0.5027462482094887
112,31758556,15.783333333333331,12.833333333333334,14.233333333333334,,14.283333333333331,Kommunal,Österåker,Margretelundsskolan,Manfred Bondes väg 5,18462,Åkersberga,http://www.osteraker.se,J,18.342847,59.47359789999999,3.7,POINT (18.342847 59.47359789999999),379.24,-0.14814688046175206
113,31903219,14.533333333333331,10.7,12.641666666666667,12.9125,12.696875,Kommunal,Stockholm,Magelungsskolan,Ullerudsbacken 39,12373,Farsta,https://grundskola.stockholm/hitta-grundskola/grundskola/magelungsskolan-f-6/,J,18.1050214,59.23296929999999,3.5,POINT (18.1050214 59.23296929999999),313.99090909090904,-0.17559460448927489
114,32231541,17.241666666666667,15.9,15.6,,16.247222222222224,Enskild,Täby,Täby Friskola-Enhagen,Enhagsslingan 23-25,18740,Täby,http://www.tabyfriskola.se,N,18.0353056,59.4389704,2.8,POINT (18.0353056 59.4389704),466.2625,-0.2635053628096031
115,32479095,15.583333333333334,14.333333333333334,15.725,,15.213888888888889,Kommunal,Sollentuna,Vaxmoraskolan,Diskusvägen 6,19248,Sollentuna,http://www.edu.sollentuna.se/vax/,J,17.94847,59.4545798,3.6,POINT (17.94847 59.4545798),359.1714285714285,1.2619113828686235
116,32886383,15.791666666666666,14.666666666666666,14.933333333333332,,15.130555555555556,Kommunal,Huddinge,Mörtviksskolan,Sonatvägen 2,14241,Skogås,http://www.huddinge.se/mortviksskolan,J,18.1633128,59.2160045,4.1,POINT (18.1633128 59.2160045),341.99999999999994,1.5888586978448949
117,32965692,15.316666666666668,13.1,14.125,,14.180555555555555,Enskild,Nacka,Noblaskolan Saltsjö-Boo,Hedenströms väg 1,13242,Saltsjö-Boo,https://noblaskolan.se/saltsjo-boo/,J,18.2336434,59.3057816,3.0,POINT (18.2336434 59.3057816),395.3999999999999,-0.6370390254340528
118,32993837,16.708333333333332,13.5,15.750000000000002,,15.319444444444445,Kommunal,Sundbyberg,Ursvikskolan,Ursviksvägen 99 B,17446,Sundbyberg,http://www.sundbyberg.se/ursvikskolan,J,17.9670661,59.3814881,3.5,POINT (17.9670661 59.3814881),369.5416666666666,1.1196886018029293
119,33455004,13.216666666666669,9.166666666666666,10.775,,11.052777777777775,Kommunal,Tyresö,Njupkärrs skola,Granängsstigen 1,13544,Tyresö,http://www.tyreso.se,J,18.2244921,59.23565540000001,3.3,POINT (18.2244921 59.23565540000001),332.40000000000003,-2.25954420833218
120,33483759,17.487499999999997,13.8,14.525,,15.270833333333334,Enskild,Stockholm,Olympen Telefonplan,Flygelgatan 1,12628,Hägersten,http://www.olympen.se,J,18.0016959,59.2979479,2.2,POINT (18.0016959 59.2979479),358.2095238095238,1.3418388253603624
121,33565539,15.6125,13.75,14.0125,,14.458333333333334,Kommunal,Vallentuna,Gustav Vasaskolan,Lindholmsvägen 211,18694,Vallentuna,http://www.skolor.vallentuna.se/gustavvasa/,J,18.1044937,59.5882501,3.4,POINT (18.1044937 59.5882501),357.7,0.541512987692343
122,33624606,13.8,11.933333333333332,12.983333333333333,,12.905555555555551,Kommunal,Haninge,Måsöskolan,Måsövägen 3,13649,Vega,http://haninge.se/forskola-och-skola/grundskola/,J,18.1297978,59.1900906,3.9,POINT (18.1297978 59.1900906),376.16,-1.4523335536009707
123,34135484,16.941666666666666,13.800000000000002,14.658333333333331,,15.133333333333333,Enskild,Nacka,Noblaskolan Järla sjö,Winborgs väg 12,13160,Nacka,https://noblaskolan.se/jarla-sjo/,J,18.14973,59.304951,2.0,POINT (18.14973 59.304951),386.2777777777778,0.5336979763994876
124,34148887,12.55,11.866666666666664,12.825,9.725,11.741666666666664,Kommunal,Södertälje,Blombackaskolan,Källgatan 8,15160,Södertälje,http://www.sodertalje.se/blombackaskolan,J,17.608933,59.19353839999999,4.3,POINT (17.608933 59.19353839999999),274.84285714285716,-0.19543008480153645
125,34540901,17.308333333333334,13.433333333333332,14.708333333333334,14.275,14.93125,Enskild,Stockholm,Estniska Skolan i Stockholm,Svartmangatan 20-22,11129,Stockholm,http://www.estniskaskolan.se,J,18.0727373,59.32372340000001,4.0,POINT (18.0727373 59.32372340000001),376.3958333333333,0.5677260741192605
126,34671128,13.875,11.033333333333331,13.199999999999998,,12.702777777777776,Kommunal,Stockholm,Solbergaskolan,Lerkrogsvägen 28,12679,Hägersten,https://grundskola.stockholm/hitta-grundskola/grundskola/solbergaskolan-f-6/,J,18.0057899,59.2902922,3.5,POINT (18.0057899 59.2902922),339.8142857142857,-0.7866953368452254
127,34814578,14.15,10.166666666666666,12.175,,12.16388888888889,Kommunal,Nynäshamn,Viaskolan 6-9,Skolgatan 35-37,14930,Nynäshamn,http://www.nynashamn.se/viaskolan,N,17.9492162,58.90952429999999,,POINT (17.9492162 58.90952429999999),285.775,-0.03441191093116025
128,35129114,18.5625,13.0,13.0375,6.475,12.76875,Enskild,Stockholm,Internationella Engelska Skolan Årsta,Sköntorpsvägen 27 ,12038,Årsta,http://www.engelska.se,N,18.0624324,59.2979884,3.8,POINT (18.0624324 59.2979884),360.45000000000005,-1.2137766890682773
129,35547286,18.14166666666667,16.733333333333334,16.200000000000003,,17.025000000000002,Enskild,Stockholm,Carlssons skola,Kommendörsgatan 31,11458,Stockholm,http://www.carlssonsskola.se,J,18.084453,59.3380403,4.3,POINT (18.084453 59.3380403),389.71764705882356,2.343175104038753
130,35890890,12.3,9.8,12.858333333333334,9.941666666666665,11.225,Enskild,Stockholm,Västerholms friskola,Vårbergsvägen 41-43,12747,Skärholmen,http://www.vasterholm.se,J,17.8997427,59.2735124,4.0,POINT (17.8997427 59.2735124),236.73125,0.19851210216612536
131,35933721,16.15,15.166666666666666,15.283333333333331,,15.533333333333331,Kommunal,Lidingö,Rudboda skola,Nilstorpsvägen 3,18147,Lidingö,https://www.lidingo.se/rudbodaskola,J,18.1800396,59.37442589999999,1.8,POINT (18.1800396 59.37442589999999),403.1333333333334,0.5309645502209257
132,36031993,14.425,11.2,10.8125,,12.145833333333334,Kommunal,Stockholm,Vällingbyskolan,Offerdalsgatan 1-9,16264,Vällingby,https://grundskola.stockholm/hitta-grundskola/grundskola/vallingbyskolan-f-9/,J,17.8831132,59.36411570000001,2.4,POINT (17.8831132 59.36411570000001),325.30952380952374,-0.9970743750913726
133,36066067,17.925,17.066666666666666,16.958333333333332,,17.316666666666666,Enskild,Stockholm,Musikskolan Lilla Akademien,Norrtullsgatan 14,11345,Stockholm,http://www.lillaakademien.se,J,18.0494899,59.3467144,3.6,POINT (18.0494899 59.3467144),404.0536585365854,2.2923083548743843
134,36185466,16.2875,15.1,14.25,,15.2125,Enskild,Lidingö,I Ur och Skur Utsikten skola,Kyrkviksstigen 3-9,18146,Lidingö,http://www.iurochskurutsikten.se,J,18.1603713,59.370834,3.7,POINT (18.1603713 59.370834),408.63,0.07879817408566225
135,36262199,15.966666666666669,13.266666666666666,14.458333333333334,,14.56388888888889,Kommunal,Salem,Nytorpsskolan,Tvillingvägen 10,14464,Rönninge,https://www.salem.se/barn--utbildning/grundskola/grundskolor/nytorpsskolan/,J,17.7306737,59.2017888,3.6,POINT (17.7306737 59.2017888),397.7,-0.308660088421723
136,36281817,17.275000000000002,15.733333333333334,15.991666666666664,,16.333333333333336,Kommunal,Stockholm,Höglandsskolan,Höglandstorget,16771,Bromma,https://grundskola.stockholm/hitta-grundskola/grundskola/hoglandsskolan-f-9/,J,17.9413826,59.32362569999999,3.1,POINT (17.9413826 59.32362569999999),453.09090909090907,0.1373174122129477
137,36350546,12.866666666666667,10.466666666666669,12.466666666666669,7.016666666666666,10.704166666666667,Kommunal,Botkyrka,Tunaskolan,Prästgårdsvägen 114,14740,Tumba,http://www.botkyrka.se/tunaskolan,J,17.8303879,59.204421,3.5,POINT (17.8303879 59.204421),288.24999999999994,-1.55326984223794
138,36513280,18.558333333333334,14.733333333333334,15.808333333333332,,16.366666666666667,Enskild,Lidingö,Futuraskolan International Gåshaga ,Värdshusvägen 3-5,18163,Lidingö,http://www.futuraskolan.se,J,18.225935,59.35737099999999,4.9,POINT (18.225935 59.35737099999999),413.62,1.1137376939515438
139,36520624,14.525,13.3,13.533333333333331,,13.786111111111111,Kommunal,Stockholm,Nybohovsskolan,Nybohovsbacken 57-59,11764,Stockholm,https://grundskola.stockholm/hitta-grundskola/grundskola/nybohovsskolan-f-6/,J,18.0162752,59.30756769999999,3.0,POINT (18.0162752 59.30756769999999),377.4559999999999,-0.6027436057115043
140,36689149,14.4125,12.6,13.35,,13.454166666666667,Kommunal,Huddinge,Skogskällan,Källbrinksvägen 55,14131,Huddinge,https://www.huddinge.se/skogskallan,J,17.9615072,59.2488178,,POINT (17.9615072 59.2488178),420.8666666666667,-1.971908476485936
141,37112288,16.866666666666664,13.766666666666667,15.908333333333331,,15.513888888888888,Enskild,Sundbyberg,Kulturama Grundsk. Sundbyberg,Lötsjövägen 10-12,17452,Sundbyberg,http://www.kulturama.se,N,17.9665058,59.3747079,3.9,POINT (17.9665058 59.3747079),355.4476190476191,1.6508851673883385
142,37147254,15.158333333333331,13.766666666666666,13.941666666666668,,14.28888888888889,Kommunal,Tyresö,Kumla skola,Tors väg 12,13551,Tyresö,http://www.tyreso.se,J,18.2070447,59.22163819999999,3.2,POINT (18.2070447 59.22163819999999),393.2999999999999,-0.4785299389380633
143,37556682,14.166666666666666,10.6,12.6,10.2625,11.907291666666666,Enskild,Stockholm,Kista International School,Sibeliusgången 11,16477,Kista,http://www.kistaschool.se,J,17.9160874,59.4136684,3.9,POINT (17.9160874 59.4136684),258.55384615384617,0.3593917697929392
144,37796564,14.4125,13.95,12.125,,13.495833333333332,Kommunal,Stockholm,Akalla grundskola F-9,Mariehamnsgatan 3-5,16471,Kista,https://grundskola.stockholm/hitta-grundskola/grundskola/akalla-grundskola-f-9/,J,17.9097631,59.41601589999999,3.7,POINT (17.9097631 59.41601589999999),275.93333333333334,1.5326815989303295
145,38394561,14.433333333333332,10.3,13.408333333333331,,12.713888888888889,Enskild,Södertälje,Södertälje friskola,Nyköpingsvägen 54,15132,Södertälje,http://www.sodertaljefriskola.se,J,17.6272985,59.1868148,4.0,POINT (17.6272985 59.1868148),311.3357142857143,-0.0951395731507585
146,38653015,14.35,11.866666666666667,13.266666666666666,,13.161111111111111,Kommunal,Södertälje,Pershagenskolan,Bränningestrandsvägen 4,15153,Södertälje,http://www.sodertalje.se/pershagenskolan.,J,17.6518244,59.1529801,2.5,POINT (17.6518244 59.1529801),344.1333333333334,-0.4315579402886005
147,38661388,13.791666666666666,11.966666666666669,13.358333333333334,,13.03888888888889,Kommunal,Botkyrka,Broängsskolan,Kärrvägen 20,14732,Tumba,http://www.botkyrka.se/broangsskolan,J,17.8095924,59.1830052,2.8,POINT (17.8095924 59.1830052),347.55,-0.6354153164659344
148,38758770,15.833333333333334,12.366666666666667,13.516666666666667,12.25,13.491666666666667,Kommunal,Stockholm,Farsta grundskola,Farstavägen 118,12332,Farsta,https://grundskola.stockholm/hitta-grundskola/grundskola/farsta-grundskola-med-adolf-fredriks-musikklasser-f-9/,J,18.0902162,59.2404638,3.9,POINT (18.0902162 59.2404638),292.7538461538461,1.1266187897154136
149,38854084,15.9,11.866666666666667,13.875,,13.880555555555556,Kommunal,Sigtuna,Steningehöjdens skola,Solurstorget 5,19565,Steningehöjden,http://www.sigtuna.se,J,17.794468,59.62171619999999,3.8,POINT (17.794468 59.62171619999999),314.3333333333333,0.999904334749715
150,38935587,18.5,14.800000000000002,14.058333333333332,,15.786111111111111,Enskild,Stockholm,Internationella Engelska Skolan Enskede ,Lingvägen 123,12245,Enskede,http://www.engelska.se,J,18.0846017,59.2619141,3.3,POINT (18.0846017 59.2619141),312.7933333333333,2.9422554426245515
151,38975788,14.716666666666669,10.333333333333334,12.216666666666669,,12.422222222222224,Kommunal,Haninge,Tungelsta skola,Tungelstavägen 135,13755,Tungelsta,http://haninge.se/forskola-och-skola/grundskola/,J,18.0448787,59.1068395,1.8,POINT (18.0448787 59.1068395),345.0,-1.1911542828636605
152,39171821,14.958333333333334,13.2,14.033333333333331,9.975,13.041666666666668,Kommunal,Stockholm,Örbyskolan,Gamla Huddingevägen 425,12542,Älvsjö,https://grundskola.stockholm/hitta-grundskola/grundskola/orbyskolan-f-9/,J,18.0266113,59.27453619999999,3.7,POINT (18.0266113 59.27453619999999),331.5615384615385,-0.2506217769717516
153,39195819,16.675,14.166666666666666,15.575,,15.472222222222223,Kommunal,Ekerö,Sanduddens skola,Sanduddsvägen 4,17840,Ekerö,http://www.ekero.se/sanduddensskola,J,17.7786663,59.2726173,4.0,POINT (17.7786663 59.2726173),415.71666666666664,0.16919714039708467
154,39229061,13.225,8.766666666666666,11.925,10.0875,11.001041666666666,Kommunal,Huddinge,Östra grundskolan,Österleden 13,14263,Skogås,http://www.huddinge.se/ostragrundskolan,N,18.1515041,59.2162123,2.6,POINT (18.1515041 59.2162123),313.49999999999994,-1.859698540979391
155,39907811,15.5375,13.2,14.4625,11.9625,13.790625,Kommunal,Sollentuna,Sofielundsskolan,Sollentunavägen 192,19135,Sollentuna,http://www.sollentuna.se/sv/uweb/sofielundsskolan/,J,17.949875,59.43349679999999,4.4,POINT (17.949875 59.43349679999999),351.65999999999997,0.018119677741124107
156,40175889,13.841666666666669,10.5,12.725,11.058333333333335,12.031250000000002,Kommunal,Södertälje,Soldalaskolan,Lundbygatan 5,15147,Södertälje,http://www.sodertalje.se/soldalaskolan,J,17.6056156,59.1859985,3.1,POINT (17.6056156 59.1859985),267.69166666666666,0.26501818574726066
157,40467992,16.78333333333333,14.133333333333333,13.291666666666666,,14.736111111111107,Enskild,Sollentuna,Futuraskolan International Hertig Karl,Ebba Brahes väg 1,19269,Sollentuna,http://www.futuraskolan.se,J,17.9098211,59.4771078,2.1,POINT (17.9098211 59.4771078),342.54999999999995,1.1812729847149868
158,40631085,11.725,7.9333333333333345,,7.783333333333332,9.147222222222222,Kommunal,Botkyrka,Fittjaskolan Botkyrka Norra,Stökhagsvägen 1,14550,Norsborg,http://www.botkyrka.se/fittjaskolanbotkyrkanorra,J,17.8611468,59.2459564,3.5,POINT (17.8611468 59.2459564),242.7230769230769,-2.0224296892714886
159,40904373,15.283333333333331,12.966666666666669,15.0,,14.416666666666666,Kommunal,Ekerö,Närlundaskolan,Trädgårdsvägen 2,17832,Ekerö,http://www.ekero.se/narlundaskolan,J,17.7954939,59.2918163,1.8,POINT (17.7954939 59.2918163),370.15999999999997,0.20213685226058864
160,41176931,16.60833333333333,15.333333333333334,14.758333333333336,,15.566666666666665,Kommunal,Stockholm,Gärdesskolan,Banérgatan 56,11553,Stockholm,https://grundskola.stockholm/hitta-grundskola/grundskola/gardesskolan-f-9/,J,18.0986132,59.34024109999999,3.2,POINT (18.0986132 59.34024109999999),377.0387096774194,1.1877823575692705
161,41377165,15.85,15.7,16.950000000000003,,16.166666666666668,Kommunal,Ekerö,Sundby skola,Nyckelbyvägen 2,17890,Ekerö,http://www.ekero.se/sundbyskola,J,17.7168622,59.2882739,3.9,POINT (17.7168622 59.2882739),362.85,2.126796259698212
162,41405700,16.125,14.033333333333331,15.125,,15.094444444444443,Kommunal,Stockholm,Storkyrkoskolan,Svartmannagatan 20-22,11129,Stockholm,https://grundskola.stockholm/hitta-grundskola/grundskola/storkyrkoskolan-f-6/,J,18.0727364,59.3237239,4.6,POINT (18.0727364 59.3237239),376.3958333333333,0.7309205185637033
163,41584790,14.066666666666668,13.766666666666666,13.125,,13.65277777777778,Enskild,Södertälje,Järna friskola,Ljungstigen 2,15336,Järna,http://www.jarnafriskola.se,J,17.5581688,59.0951876,4.1,POINT (17.5581688 59.0951876),323.05,0.5638573593206004
164,41764666,16.291666666666668,14.800000000000002,15.316666666666668,,15.469444444444449,Kommunal,Stockholm,Långbrodalsskolan,Sländvägen 1,12558,Älvsjö,https://grundskola.stockholm/hitta-grundskola/grundskola/langbrodalsskolan-f-6/,J,17.988666,59.2769134,3.9,POINT (17.988666 59.2769134),401.1700000000001,0.5139860083364933
165,41888515,16.0,13.6,15.216666666666669,,14.93888888888889,Kommunal,Tyresö,Fårdala skola,Akvarievägen 2,13542,Tyresö,http://www.tyreso.se,J,18.2410956,59.2426773,,POINT (18.2410956 59.2426773),314.90909090909093,2.044480968081743
166,42149666,14.016666666666666,9.666666666666668,,10.433333333333334,11.372222222222222,Kommunal,Stockholm,Husbygårdsskolan F-9,Trondheimsgatan 21,16432,Kista,https://grundskola.stockholm/hitta-grundskola/grundskola/husbygardsskolan-4-9/,J,17.9243896,59.4107996,4.1,POINT (17.9243896 59.4107996),267.61764705882354,-0.39224102556750395
167,42202683,18.0,15.3,14.2625,,15.854166666666666,Enskild,Stockholm,Kungsholmens friskola,Pipersgatan 18,11224,Stockholm,http://www.kungsholmens-friskola.se,J,18.0460118,59.3308068,5.0,POINT (18.0460118 59.3308068),411.0842105263159,0.661825859048701
168,42215279,16.433333333333334,13.333333333333334,15.108333333333334,11.875,14.1875,Kommunal,Sigtuna,S:t Pers skola,S:t Persgatan 5-7,19332,Sigtuna,http://www.sigtuna.se/stpersskola,J,17.7121305,59.61776039999999,3.5,POINT (17.7121305 59.61776039999999),343.40000000000003,0.6123526401808981
169,42328518,17.375,15.5,15.9,,16.258333333333333,Enskild,Stockholm,Franska Skolan/Ecole francaise,Döbelsgatan 9,11140,Stockholm,http://www.franskaskolan.se,J,18.0633494,59.3386105,3.6,POINT (18.0633494 59.3386105),407.38285714285706,1.1544297608278384
170,42434583,14.683333333333332,12.8,12.866666666666664,,13.449999999999998,Kommunal,Värmdö,Brunns skola,Brunns centrum,13460,Ingarö,http://www.varmdo.se,J,18.4291508,59.2805708,2.7,POINT (18.4291508 59.2805708),402.9,-1.546793699427667
171,42601396,14.466666666666669,11.866666666666667,13.0,,13.111111111111112,Kommunal,Huddinge,Trångsundsskolan,Löparvägen 4,14173,Trångsund,http://www.huddinge.se/trangsundsskolan,J,18.1316697,59.23198719999999,2.3,POINT (18.1316697 59.23198719999999),341.03999999999996,-0.4076482594394797
172,43038662,15.008333333333336,13.0,14.958333333333334,,14.322222222222225,Kommunal,Ekerö,Färentuna skola,Ölstavägen 5,17998,Färentuna,http://www.ekero.se/farentunaskola,J,17.6549521,59.394252,5.0,POINT (17.6549521 59.394252),332.5333333333333,1.0067144740067047
173,43088454,16.025000000000002,13.699999999999998,13.725,,14.483333333333334,Kommunal,Stockholm,Björkhagens skola,Karlskronavägen 10,12152,Johanneshov,https://grundskola.stockholm/hitta-grundskola/grundskola/bjorkhagens-skola-f-9/,J,18.1163777,59.2934966,3.4,POINT (18.1163777 59.2934966),366.98823529411766,0.34458717748552914
174,43133926,16.816666666666666,14.0,14.225,,15.013888888888888,Kommunal,Solna,Bergshamraskolan,Hjortstigen 1,17071,Solna,http://www.solna.se,J,18.0303495,59.3831876,4.6,POINT (18.0303495 59.3831876),333.3636363636364,1.6785425311978006
175,43134105,13.416666666666666,10.033333333333331,9.075,10.558333333333334,10.770833333333332,Enskild,Stockholm,Cordoba International School,Kottbygatan 7,16475,Kista,http://www.cordobaskolan.se,J,17.9230708,59.41830820000001,3.6,POINT (17.9230708 59.41830820000001),276.32307692307694,-1.2016306287628638
176,43138370,16.116666666666667,12.5,15.575,,14.730555555555556,Enskild,Sundbyberg,Vittra Brotorp,Boplatsvägen 1,17446,Sundbyberg,http://www.vittra.se/brotorp,J,17.9718154,59.38213549999999,3.9,POINT (17.9718154 59.38213549999999),373.5181818181818,0.4357879782997607
177,43166282,16.625000000000004,14.800000000000002,14.741666666666667,,15.388888888888893,Kommunal,Stockholm,Nälstaskolan,Trolle Bondes gata,16272,Vällingby,https://grundskola.stockholm/hitta-grundskola/grundskola/nalstaskolan-f-6/,J,17.8852789,59.3705295,4.1,POINT (17.8852789 59.3705295),338.12,1.9398977084501823
178,43238662,12.925,9.1,13.041666666666666,8.75,10.954166666666666,Kommunal,Botkyrka,Björkhaga Skola,Högbrinksvägen 4,14731,Tumba,http://www.botkyrka.se/bjorkhagaskola,J,17.8243656,59.1989022,2.5,POINT (17.8243656 59.1989022),297.2,-1.5171141235740198
179,43261877,17.7625,15.25,15.9,,16.304166666666667,Enskild,Vaxholm,Montessoriskolan i Vaxholm,Johannesbergsvägen 3A,18531,Vaxholm,http://www.monvax.com,J,18.3367842,59.4004437,5.0,POINT (18.3367842 59.4004437),319.7333333333333,3.294492080585428
180,43289917,17.116666666666664,14.9,14.408333333333331,,15.475,Kommunal,Danderyd,Vasaskolan,Vendevägen 30 A,18262,Djursholm,https://www.danderyd.se/skolor/vasaskolan/,J,18.0768913,59.399072,3.0,POINT (18.0768913 59.399072),389.65999999999997,0.7945524776549817
181,43375546,14.8,14.133333333333333,12.991666666666664,,13.975,Enskild,Sollentuna,Rälsen AB åk 4-9,Staffans väg 13,19278,Sollentuna,http://www.ralsen.se,N,17.9151632,59.4829215,3.0,POINT (17.9151632 59.4829215),331.97499999999997,0.6728326306015351
182,43403496,13.725,8.3,12.35,,11.458333333333334,Kommunal,Södertälje,Mariekällskolan,Mariekällgatan 3,15144,Södertälje,http://sodertalje.se/oxbacksskolan,N,17.6263589,59.18863450000001,,POINT (17.6263589 59.18863450000001),307.60769230769233,-1.261620695109082
183,43632318,13.108333333333334,10.3,,8.980555555555556,10.796296296296296,Kommunal,Stockholm,Enbacksskolan,Uppingegränd 27-33,16361,Spånga,https://grundskola.stockholm/hitta-grundskola/grundskola/enbacksskolan-f-9/,J,17.905781,59.39034099999999,4.3,POINT (17.905781 59.39034099999999),232.81111111111107,-0.13652687713175915
184,43802065,10.4375,4.7,11.525,,8.8875,Enskild,Södertälje,Lilla Parkskolan,Parkgatan 1,15132,Södertälje,http://www.lillaparkskolan.se,J,17.6246212,59.191829,2.1,POINT (17.6246212 59.191829),302.28125,-3.705188192982469
185,43869172,15.950000000000005,13.133333333333336,13.766666666666667,,14.283333333333331,Enskild,Österåker,Fredsborgskolan,Företagsallén 14,18440,Åkersberga,http://www.fredsborgskolan.se,J,18.2742279,59.4830839,2.3,POINT (18.2742279 59.4830839),341.06666666666666,0.763936810361626
186,44002887,16.366666666666667,14.033333333333331,15.300000000000002,,15.233333333333334,Kommunal,Täby,Ellagårdsskolan,Ellagårdsvägen 21,18731,Täby,http://www.taby.se/ellagardsskolan,J,18.0445912,59.4429935,3.1,POINT (18.0445912 59.4429935),439.59090909090907,-0.6401241745985562
187,44031601,12.391666666666666,7.466666666666666,11.85,9.75,10.364583333333332,Kommunal,Haninge,Höglundaskolan,Blockstensvägen 128,13767,Jordbro,http://haninge.se/forskola-och-skola/grundskola/,J,18.1390711,59.14270570000001,3.8,POINT (18.1390711 59.14270570000001),258.8833333333333,-1.191189071820494
188,44046131,15.516666666666666,14.266666666666666,12.775,,14.18611111111111,Kommunal,Stockholm,Sundbyskolan,Sundbyvägen 88-98,16344,Spånga,https://grundskola.stockholm/hitta-grundskola/grundskola/sundbyskolan-f-9/,J,17.9186772,59.3701635,2.4,POINT (17.9186772 59.3701635),370.825,-0.04430769179647598
189,44175786,16.916666666666668,16.0,15.241666666666667,,16.05277777777778,Kommunal,Nacka,Boo Gårds skola,Boovägen 4,13247,Saltsjö-Boo,http://www.boogard.nacka.se,J,18.2846429,59.3100081,2.6,POINT (18.2846429 59.3100081),451.93333333333334,-0.11557993597156369
190,44227469,13.8625,12.05,11.5375,,12.483333333333334,Kommunal,Upplands Väsby,Grimstaskolan,Vårvägen 1,19464,Upplands Väsby,http://www.upplandsvasby.se/grimstaskolan,N,17.9465511,59.5001014,2.2,POINT (17.9465511 59.5001014),387.16,-2.1373811495323345
191,44373961,14.383333333333333,14.633333333333336,15.216666666666669,,14.744444444444444,Enskild,Nacka,Idunskolan Östra Stockholms Waldorfskola,Velamsundsvägen 1,13236,Saltsjö-Boo,http://www.idunskolan.se,J,18.3136128,59.33387980000001,4.6,POINT (18.3136128 59.33387980000001),402.15,-0.23442934313941421
192,44673074,16.233333333333334,13.766666666666667,15.033333333333331,,15.011111111111113,Kommunal,Stockholm,Abrahamsbergsskolan,Gustav III:s väg 2-10,16830,Bromma,https://grundskola.stockholm/hitta-grundskola/grundskola/abrahamsbergsskolan-f-9/,J,17.9504312,59.33487539999999,3.7,POINT (17.9504312 59.33487539999999),408.10624999999993,-0.1100766430322988
193,44836298,16.491666666666664,14.733333333333334,14.975,,15.4,Kommunal,Nacka,Sigfridsborgs skola,Evalundsvägen 37,13834,Älta,http://www.skolor.nacka.se/sigfridsborg,J,18.1968729,59.2569398,,POINT (18.1968729 59.2569398),403.65000000000003,0.38528638872852916
194,45104329,17.525,14.7,14.8,,15.674999999999995,Kommunal,Lidingö,Torsviks skola,Skolvägen 3,18133,Lidingö,https://www.lidingo.se/torsvikskola,J,18.1267855,59.36559159999999,1.9,POINT (18.1267855 59.36559159999999),385.81666666666666,1.0863820703478986
195,45133950,13.75,9.766666666666666,14.425000000000002,,12.647222222222224,Enskild,Norrtälje,Freinetskolan Mimer,Utvägen 25,76163,Norrtälje,http://www.mimer.org,J,18.7120131,59.7709857,3.9,POINT (18.7120131 59.7709857),304.96,-0.009469922562368893
196,45364437,13.075,11.566666666666668,13.1,9.5875,11.832291666666668,Kommunal,Stockholm,Bandhagens skola,Trollesundsvägen 66,12457,Bandhagen,https://grundskola.stockholm/hitta-grundskola/grundskola/bandhagens-skola-f-6/,J,18.051512,59.2647029,4.0,POINT (18.051512 59.2647029),316.09375,-1.0904215694392168
197,45436515,16.78333333333333,14.866666666666667,14.85,,15.5,Kommunal,Stockholm,Sofia skola,Skånegatan 117,11635,Stockholm,https://grundskola.stockholm/hitta-grundskola/grundskola/sofia-skola-f-9/,J,18.0923176,59.3133293,2.8,POINT (18.0923176 59.3133293),380.10588235294114,1.0478310722958355
198,45553352,19.23333333333333,16.766666666666666,16.474999999999998,,17.491666666666664,Enskild,Stockholm,Montessori Mondial Kungsholmen,Konradsbergsgatan 24,11259,Stockholm,http://www.stims.se,J,18.0152179,59.32997839999999,3.4,POINT (18.0152179 59.32997839999999),406.9806451612903,2.397373231830768
199,45757947,12.158333333333331,9.8,,9.183333333333332,10.380555555555556,Kommunal,Botkyrka,Tallidsskolan,Bägarvägen 2,14551,Norsborg,http://www.botkyrka.se/tallidsskolan,J,17.8519657,59.24812619999999,2.8,POINT (17.8519657 59.24812619999999),233.14166666666665,-0.5601656530925467
200,45882318,15.075,14.466666666666669,14.008333333333333,,14.516666666666667,Kommunal,Sollentuna,Töjnaskolan,Sveavägen 55 ,19134,Sollentuna,http://www.edu.sollentuna.se/ton/,J,17.929969,59.4238831,4.3,POINT (17.929969 59.4238831),305.72727272727275,1.8416419090382288
201,45914893,15.291666666666666,10.8,13.716666666666669,,13.269444444444446,Kommunal,Haninge,Båtsmansskolan,Järnåldersringen 883,13665,Söderby,http://haninge.se/forskola-och-skola/grundskola/,J,18.1629491,59.1849742,3.5,POINT (18.1629491 59.1849742),353.1714285714285,-0.5391737668253764
202,45984740,13.95,8.3,9.766666666666667,,10.672222222222222,Enskild,Täby,Helleborusskolan Täby AB,Kuttervägen 1- 3,18353,Täby,http://www.helleborusskolan.se,J,18.0879484,59.4340233,3.2,POINT (18.0879484 59.4340233),407.50000000000006,-4.43448026984745
203,45994471,12.816666666666665,11.233333333333334,12.833333333333334,,12.294444444444444,Enskild,Södertälje,Solvikskolan,Yttereneby 21,15391,Järna,http://solvikskolan.se,J,17.6203374,59.047666,2.4,POINT (17.6203374 59.047666),323.5,-0.8052279211190196
204,46097781,17.36666666666667,15.166666666666666,15.541666666666666,,16.025000000000002,Enskild,Lidingö,Christinaskolan,Läroverksvägen 56,18156,Lidingö,http://www.christinaskolan.se,J,18.1456551,59.35232560000001,3.0,POINT (18.1456551 59.35232560000001),358.86666666666673,2.080304235935312
205,46165232,17.758333333333333,15.366666666666667,15.683333333333332,,16.269444444444442,Kommunal,Stockholm,Mälarhöjdens skola,Lugntorpsvägen 2,12944,Hägersten,https://grundskola.stockholm/hitta-grundskola/grundskola/malarhojdens-skola-f-9/,J,17.9578608,59.2975053,2.2,POINT (17.9578608 59.2975053),345.58750000000003,2.6420306750809086
206,46206050,16.008333333333333,13.8,14.383333333333333,,14.730555555555554,Enskild,Vallentuna,Vittra Vallentuna,Zetterlunds väg 140,18654,Vallentuna,http://www.vittra.se/vallentuna,J,18.0744349,59.5103428,3.1,POINT (18.0744349 59.5103428),426.14285714285717,-0.8215847452029958
207,46518352,11.966666666666669,11.233333333333334,11.475,,11.558333333333335,Kommunal,Norrtälje,Elmsta skola,Lärarvägen 4,76430,Väddö,http://www.norrtalje.se,J,18.8095932,59.96912,2.5,POINT (18.8095932 59.96912),251.6,0.17658318319601918
208,46581319,13.85,10.466666666666669,,11.433333333333332,11.916666666666666,Kommunal,Stockholm,Lillholmsskolan,Stångholmsbacken 91-95,12740,Skärholmen,https://grundskola.stockholm/hitta-grundskola/grundskola/lillholmsskolan-f-9/,J,17.8940878,59.2788718,2.9,POINT (17.8940878 59.2788718),240.25454545454542,0.8059959102392806
209,46585145,17.3125,15.8,16.3,,16.47083333333333,Enskild,Lidingö,Vittra Lidingö,Vesslevägen 3,18145,Lidingö,http://www.vittra.se/lidingo,J,18.1448438,59.3758249,3.8,POINT (18.1448438 59.3758249),407.7142857142857,1.359010866451145
210,46616391,16.583333333333332,14.433333333333332,14.066666666666665,,15.027777777777777,Kommunal,Stockholm,Beckombergaskolan,Styresman Sanders väg 14,16860,Bromma,https://grundskola.stockholm/hitta-grundskola/grundskola/beckombergaskolan-f-6/,J,17.9018957,59.3601694,4.6,POINT (17.9018957 59.3601694),390.2941176470588,0.3321791456542318
211,46706680,15.55,12.7,12.550000000000002,,13.6,Kommunal,Solna,Ulriksdalsskolan,Banmästaregatan 3,17067,Solna,http://www.solna.se,J,18.0029574,59.3807518,3.2,POINT (18.0029574 59.3807518),414.68999999999994,-1.6784947136122845
212,46796995,16.008333333333333,12.333333333333334,13.775,,14.03888888888889,Enskild,Stockholm,Kunskapsskolan Spånga,Salagatan 42,16353,Spånga,https://www.kunskapsskolan.se,N,17.8889043,59.38603149999999,3.1,POINT (17.8889043 59.38603149999999),307.2666666666667,1.3270830596780154
213,47204443,14.166666666666666,10.4,13.449999999999998,,12.67222222222222,Kommunal,Södertälje,Mölnboskolan,Skolvägen 13,15173,Mölnbo,http://www.sodertalje.se/molnboskolan,J,17.4243285,59.0526892,,POINT (17.4243285 59.0526892),323.7,-0.4322287864995893
214,47462120,15.433333333333332,12.166666666666666,12.991666666666664,,13.530555555555551,Enskild,Sollentuna,Dibber International School Sollentuna ,Lindvägen 16,19270,Sollentuna,https://dibber.se/skola/international-school-sollentuna/,J,17.9232348,59.45344409999999,3.6,POINT (17.9232348 59.45344409999999),389.96250000000003,-1.157119664566471
215,47640376,14.641666666666666,12.9,13.783333333333331,,13.775,Kommunal,Haninge,Dalarö skola,Odinsvägen 31,13770,Dalarö,http://haninge.se/forskola-och-skola/grundskola/,J,18.4089167,59.1346909,2.5,POINT (18.4089167 59.1346909),338.75,0.3109560936124929
216,47979659,14.125,12.566666666666668,12.449999999999998,,13.047222222222222,Kommunal,Stockholm,Backluraskolan,Brunklövergränd 12,16577,Hässelby,https://grundskola.stockholm/hitta-grundskola/grundskola/backluraskolan-f-6/,J,17.8165814,59.3920895,3.0,POINT (17.8165814 59.3920895),362.66,-0.9881084737458021
217,47986219,19.3,14.6,15.366666666666664,,16.42222222222222,Enskild,Sollentuna,Futuraskolan International Rådan,Rådan 3,19138,Sollentuna,http://www.futuraskolan.se,J,18.0010892,59.39975159999999,3.9,POINT (18.0010892 59.39975159999999),475.22857142857146,-0.3027336422566229
218,48312263,15.025,11.966666666666669,12.741666666666664,,13.244444444444444,Kommunal,Tyresö,Hanvikens skola,Lindalsvägen 47,13550,Tyresö,http://www.tyreso.se,J,18.2099955,59.23632970000001,3.0,POINT (18.2099955 59.23632970000001),319.77272727272725,0.23382861046837888
219,48328583,15.841666666666663,12.6,14.091666666666663,11.85,13.595833333333331,Kommunal,Stockholm,Årstaskolan,Hjälmarsvägen 16,12053,Årsta,https://grundskola.stockholm/hitta-grundskola/grundskola/arstaskolan-f-9/,J,18.0539931,59.29943160000001,3.7,POINT (18.0539931 59.29943160000001),365.5529411764706,-0.5086190304369165
220,48760074,16.425,12.1,14.341666666666669,,14.28888888888889,Enskild,Solna,Vittra Frösunda,Anders Lundströms gata 5,16973,Solna,http://www.vittra.se/frosunda,J,18.015305,59.3705191,3.7,POINT (18.015305 59.3705191),366.1,0.17136553059727788
221,49021135,14.841666666666669,12.233333333333334,13.391666666666666,,13.488888888888887,Enskild,Upplands Väsby,Södervikskolan,Söderviksvägen 1,19454,Upplands Väsby,http://www.sodervikskolan.se,N,17.9474737,59.5238551,4.0,POINT (17.9474737 59.5238551),334.90000000000003,0.1168338632995809
222,49631077,16.03333333333333,13.0,14.483333333333334,,14.505555555555556,Kommunal,Lidingö,Högsätra skola,Högsätravägen 8,18158,Lidingö,https://www.lidingo.se/hogsatraskola,J,18.1553911,59.3505657,3.1,POINT (18.1553911 59.3505657),365.8363636363636,0.3943313177908596
223,49741755,16.2375,15.35,14.525000000000002,,15.370833333333335,Kommunal,Stockholm,Lugnets skola,Lugnets allé 66,12068,Stockholm,https://grundskola.stockholm/hitta-grundskola/grundskola/lugnets-skola-f-6/,J,18.1075783,59.30562500000001,3.1,POINT (18.1075783 59.30562500000001),396.6173913043478,0.5241513592059555
224,49862579,13.45,11.866666666666667,12.541666666666668,,12.619444444444444,Kommunal,Stockholm,Fagersjöskolan,Havsörnsgränd 16,12349,Farsta,https://grundskola.stockholm/hitta-grundskola/grundskola/fagersjoskolan-f-6/,J,18.0623004,59.2456952,2.6,POINT (18.0623004 59.2456952),302.2,0.028697575245054452
225,50060022,14.324999999999998,10.4,11.483333333333334,9.5,11.427083333333332,Kommunal,Stockholm,Smedshagsskolan,Smedshagsvägen 3,16573,Hässelby,https://grundskola.stockholm/hitta-grundskola/grundskola/smedshagsskolan-f-9/,J,17.8230838,59.378849,3.5,POINT (17.8230838 59.378849),365.85714285714283,-2.6846373868374265
226,50783450,15.275,13.5,14.041666666666666,7.6,12.604166666666666,Kommunal,Huddinge,Vistaskolan,Vista Skolväg 1,14150,Huddinge,http://www.huddinge.se/vistaskolan,J,17.9509121,59.23270969999999,3.1,POINT (17.9509121 59.23270969999999),317.02,-0.34067766056631754
227,50848996,15.116666666666667,13.333333333333334,13.858333333333334,,14.10277777777778,Enskild,Stockholm,Raoul Wallenbergskolan Bromma,Beckombergavägen 316,16861,Bromma,http://www.raoulwallenbergskolan.se,J,17.9026189,59.35686500000001,,POINT (17.9026189 59.35686500000001),391.77647058823527,-0.6282390330488177
228,50905672,14.691666666666668,12.566666666666668,13.383333333333333,,13.547222222222222,Kommunal,Norrtälje,Rådmansö skola,Kungsgårdsvägen 34,76194,Norrtälje,http://www.norrtalje.se,J,18.9588234,59.749489,5.0,POINT (18.9588234 59.749489),281.5,1.4510649199118628
229,51100048,14.2,12.4,14.575,,13.725,Kommunal,Sundbyberg,Kymlingeskolan,Oxenstjärnas Alle 41,17463,Sundbyberg,http://www.sundbyberg.se,J,17.9472169,59.38630250000001,4.5,POINT (17.9472169 59.38630250000001),288.8235294117647,1.4538600290971875
230,51210001,11.916666666666666,6.3,10.308333333333332,3.5666666666666664,8.022916666666667,Kommunal,Södertälje,Ronnaskolan,Robert Anbergs väg 1-3,15153,Södertälje,http://www.sodertalje.se/ronnaskolan,J,17.5984288,59.20540889999999,3.6,POINT (17.5984288 59.20540889999999),228.1,-2.797342912364744
231,51305351,15.225,14.800000000000002,13.966666666666669,,14.66388888888889,Kommunal,Österåker,Tråsättraskolan,Sjöfågelvägen 1,18461,Åkersberga,http://www.osteraker.se,N,18.3404538,59.4759286,2.0,POINT (18.3404538 59.4759286),379.24,0.23240867509380614
232,51341279,14.533333333333331,10.366666666666667,12.975,10.266666666666667,12.035416666666666,Kommunal,Stockholm,Grimstaskolan,Kanngjutargränd 12,16257,Vällingby,https://grundskola.stockholm/hitta-grundskola/grundskola/grimstaskolan-f-9/,J,17.8649368,59.36049259999999,3.3,POINT (17.8649368 59.36049259999999),273.9799999999999,0.11893634711019985
233,51772207,16.03333333333333,13.5,14.983333333333334,,14.838888888888889,Enskild,Stockholm,Innovitaskolan Södermalm,Vintertullstorget 2,11643,Stockholm,https://innovitaskolan.se/sodermalm/,J,18.0904988,59.30757629999999,2.6,POINT (18.0904988 59.30757629999999),382.4399999999998,0.33095038456024106
234,52064811,14.933333333333332,14.166666666666666,13.65,,14.25,Kommunal,Norrtälje,Skederids skola,Birgittas väg 1,76292,Rimbo,https://www.norrtalje.se/info/barn-och-skola/grundskola/grundskolor/skederids-skola/,J,18.4996747,59.7384405,3.5,POINT (18.4996747 59.7384405),309.8,1.4776646907833815
235,52293921,15.083333333333334,13.266666666666666,12.841666666666669,,13.730555555555556,Kommunal,Vallentuna,Bällstabergsskolan,Svampskogsvägen 28,18655,Vallentuna,http://www.skolor.vallentuna.se/ballstaberg/,J,18.0769509,59.51027200000001,3.8,POINT (18.0769509 59.51027200000001),426.14285714285717,-1.821584745202994
236,52531425,13.225,10.033333333333331,11.25,,11.502777777777778,Kommunal,Tyresö,Stimmets skola,Forellvägen 43,13542,Tyresö,http://www.tyreso.se,J,18.2346607,59.24589,1.5,POINT (18.2346607 59.24589),330.55833333333334,-1.7655408692490528
237,52863414,17.724999999999998,15.033333333333331,15.141666666666666,,15.966666666666669,Kommunal,Stockholm,Vasa Real,Karlbergsvägen 15,11327,Stockholm,https://grundskola.stockholm/hitta-grundskola/grundskola/vasa-real-5-9/,N,18.0443017,59.34255339999999,2.6,POINT (18.0443017 59.34255339999999),414.7533333333334,0.6866587160542377
238,52866214,13.6,14.2,13.325,,13.708333333333334,Kommunal,Täby,Myrängsskolan,Tappvägen 3-5,18764,Täby,http://www.taby.se/Myrangsskolan,J,18.0788398,59.4653283,4.1,POINT (18.0788398 59.4653283),410.14285714285717,-1.461515514757366
239,52885189,17.758333333333336,15.666666666666666,15.85,,16.425,Kommunal,Nacka,Ektorps skola,Skogsstigen 40,13142,Nacka,http://www.ektorp.nacka.se,J,18.1967932,59.31458809999999,3.4,POINT (18.1967932 59.31458809999999),387.2571428571428,1.8019644618859942
240,52965560,19.375,15.133333333333333,14.833333333333334,,16.447222222222223,Enskild,Stockholm,Vasa International School of Stockholm,Luntmakargatan 101,11351,Stockholm,http://www.vasainternationalschoolofstockholm.com,J,18.0569129,59.34406259999999,3.6,POINT (18.0569129 59.34406259999999),411.0102564102564,1.2566484162579563
241,53075005,16.716666666666665,14.833333333333334,14.983333333333334,,15.511111111111113,Kommunal,Stockholm,Skarpnäcks skola,Kärrtorpsvägen 95,12155,Johanneshov,https://grundskola.stockholm/hitta-grundskola/grundskola/skarpnacks-skola-f-9/,J,18.1130673,59.2820084,3.0,POINT (18.1130673 59.2820084),339.73529411764713,2.0235253597523304
242,53133366,14.775,11.1,12.333333333333334,,12.736111111111112,Kommunal,Nacka,Orminge skola,Sandövägen 4,13232,Saltsjö-Boo,http://www.orminge.se,J,18.2580394,59.3303086,2.6,POINT (18.2580394 59.3303086),378.0777777777778,-1.667599876330458
243,53259263,13.325,11.4,11.575,,12.1,Enskild,Solna,"Ingridskolan, grundskola",Hjortstigen 1,17071,Solna,http://www.ingridskolan.se,N,18.0315225,59.3824696,4.0,POINT (18.0315225 59.3824696),333.3636363636364,-1.2353463576910872
244,53319802,13.5125,9.8,13.125,,12.145833333333334,Kommunal,Österåker,Ljusterö skola,Mellansjövägen 60 A,18495,Ljusterö,http://www.osteraker.se,J,18.6231723,59.5262115,3.3,POINT (18.6231723 59.5262115),272.5,0.26471497314864045
245,53426548,11.425,9.4,,9.516666666666666,10.113888888888887,Kommunal,Botkyrka,Brunnaskolan,Hummlevägen 2,14567,Norsborg,http://www.botkyrka.se/brunnaskolan,J,17.8373962,59.2489629,4.0,POINT (17.8373962 59.2489629),232.70714285714283,-0.8164501486116151
246,54806839,14.716666666666669,10.5,12.683333333333332,,12.633333333333333,Enskild,Norrtälje,Viby friskola,Lillskogsvägen 2,76231,Rimbo,http://www.vibyfriskola.se,J,18.3562771,59.7422534,5.0,POINT (18.3562771 59.7422534),269.9666666666667,0.8127444531543802
247,54847211,15.875,9.4,13.883333333333333,,13.052777777777775,Enskild,Stockholm,Entréskolan Stockholm,Lövholmsvägen 61,11765,Stockholm,http://www.entreskolan.se,N,18.0122759,59.31315749999999,2.7,POINT (18.0122759 59.31315749999999),379.28846153846155,-1.3798603380133692
248,55382103,16.5,14.1,14.9,,15.166666666666666,Kommunal,Stockholm,Björngårdsskolan,Maria Prästgårdsgata 9,11852,Stockholm,https://grundskola.stockholm/hitta-grundskola/grundskola/bjorngardsskolan-f-6/,J,18.0647493,59.3161807,3.8,POINT (18.0647493 59.3161807),363.4522727272728,1.1124060274600023
249,55508705,15.191666666666668,12.133333333333333,14.333333333333334,,13.886111111111113,Enskild,Sigtuna,"Josefinaskolan, grundskola",Rävsta gård,19592,Märsta,http://www.josefinaskolan.se,J,17.7829719,59.6273715,3.3,POINT (17.7829719 59.6273715),360.62,-0.10047742464175968
250,56299553,14.141666666666667,13.166666666666666,14.175,12.075,13.389583333333334,Kommunal,Upplands-Bro,Bergaskolan,Gamla Landsvägen 16,19630,Kungsängen,http://www.upplands-bro.se/barn-och-utbildning/barn-och-unga-6-16-ar/kommunala-skolor/bergaskolan.html,J,17.7557947,59.4817405,3.0,POINT (17.7557947 59.4817405),315.44,0.48249028705130037
251,56417100,11.375,8.6,,8.466666666666667,9.480555555555556,Kommunal,Botkyrka,Kvarnhagsskolan,Servitutsvägen 17,14559,Norsborg,http://www.botkyrka.se/kvarnhagsskolan,J,17.8470884,59.2351481,2.9,POINT (17.8470884 59.2351481),236.44,-1.538973443178973
252,56501561,16.658333333333335,14.9,15.55,,15.702777777777778,Kommunal,Stockholm,Essingeskolan,Essingestråket 24,11266,Stockholm,https://grundskola.stockholm/hitta-grundskola/grundskola/essingeskolan-f-6/,J,17.9865448,59.3209238,,POINT (17.9865448 59.3209238),402.18749999999994,0.7230079946017298
253,56568612,12.316666666666668,9.966666666666669,13.225,9.925,11.358333333333333,Kommunal,Södertälje,Wasaskolan,Prosten Linders väg 2,15145,Södertälje,http://www.sodertalje.se/wasaskolan,J,17.5808969,59.1936851,4.0,POINT (17.5808969 59.1936851),225.475,0.6007934457552384
254,56858061,13.575,10.5,12.241666666666667,,12.105555555555556,Enskild,Salem,Söderby friskola,Söderbyvägen 25,14444,Rönninge,http://www.soderbyfriskola.se,J,17.7765631,59.19736039999999,3.3,POINT (17.7765631 59.19736039999999),347.13,-1.5587134991667373
255,56867397,16.683333333333334,15.466666666666669,15.85,,16.0,Enskild,Sollentuna,Silverbäcken Dibber,Silverbäcksvägen 1,19138,Sollentuna,http://www.dibber.se,J,17.9869335,59.40031330000001,3.8,POINT (17.9869335 59.40031330000001),449.57142857142856,-0.11192421359361404
256,56949296,14.550000000000002,10.1,12.366666666666664,,12.33888888888889,Kommunal,Stockholm,Blackebergsskolan,Björnsonsgatan 132,16844,Bromma,https://grundskola.stockholm/hitta-grundskola/grundskola/blackebergsskolan-f-6/,J,17.879725,59.34798319999999,3.5,POINT (17.879725 59.34798319999999),333.15000000000003,-0.9913530090648699
257,57106833,17.725,17.0,18.9,,17.875,Enskild,Danderyd,Vendestigens skola,Vendevägen 30 A,18262,Djursholm,http://www.vendestigen.se,J,18.0760189,59.39952159999999,2.3,POINT (18.0760189 59.39952159999999),388.7166666666667,3.2170917445518548
258,57184925,14.166666666666666,7.8,11.575,,11.180555555555555,Kommunal,Stockholm,Hökarängsskolan,Fagersjövägen 18,12358,Farsta,https://grundskola.stockholm/hitta-grundskola/grundskola/hokarangsskolan-f-9/,J,18.0760919,59.25581030000001,3.1,POINT (18.0760919 59.25581030000001),297.15714285714284,-1.2897012397226266
259,57206066,14.508333333333336,13.966666666666669,13.558333333333332,,14.011111111111113,Kommunal,Täby,Vallatorpsskolan,Klövervallsvägen 81,18752,Täby,http://www.taby.se/vallatorpsskolan,J,18.0417914,59.46837600000001,3.7,POINT (18.0417914 59.46837600000001),433.95000000000005,-1.7275669386500976
260,57228484,10.741666666666664,7.1000000000000005,,9.258333333333333,9.033333333333331,Kommunal,Botkyrka,Grindtorpsskolan,Lagmansbacken 12,14556,Norsborg,http://www.botkyrka.se/grindtorpsskolan,J,17.8441866,59.24099990000001,,POINT (17.8441866 59.24099990000001),231.21428571428572,-1.8613365463066458
261,57317316,15.3,12.05,13.25,,13.533333333333331,Enskild,Stockholm,JENSEN grundskola Långholmen,Alstaviksvägen 21,11733,Stockholm,https://www.jensengrundskola.se/langholmen,N,18.0265246,59.3221988,3.4,POINT (18.0265246 59.3221988),389.2037037037037,-1.1362118031393074
262,57368693,16.433333333333334,13.933333333333332,14.608333333333334,,14.991666666666667,Kommunal,Nacka,Sickla skola,Gillevägen 5,13133,Nacka,http://www.sickla.nacka.se,J,18.1295112,59.30376709999999,3.6,POINT (18.1295112 59.30376709999999),392.7615384615385,0.23711341657372564
263,57370453,13.716666666666669,12.0,12.825,,12.847222222222223,Kommunal,Vallentuna,Karbyskolan,Vadavägen 1,18670,Brottby,http://www.vallentuna.se/karby,J,18.2205672,59.561454,3.0,POINT (18.2205672 59.561454),335.6333333333333,-0.5423544949476913
264,58102266,15.483333333333334,10.9,13.980555555555554,10.1,12.615972222222222,Enskild,Sollentuna,Vittra Sollentuna,Sollentuna väg 189,19135,Sollentuna,http://www.vittra.se/sollentuna,J,17.9481995,59.4326573,3.3,POINT (17.9481995 59.4326573),351.65999999999997,-1.156533100036654
265,58286716,13.450000000000005,8.933333333333334,11.525,7.2375,10.286458333333334,Kommunal,Sigtuna,Norrbackaskolan,Odensalavägen 1,19543,Märsta,http://www.sigtuna.se/norrbackaskolan,J,17.8506971,59.6339602,4.8,POINT (17.8506971 59.6339602),292.88571428571424,-2.0817402973486985
266,58294981,15.175,12.4,14.9,4.775,11.8125,Kommunal,Sollentuna,Rösjöskolan,Ribbings väg 22,19252,Sollentuna,https://www.sollentuna.se/uweb/rosjoskolan/,J,17.9762774,59.4465286,3.0,POINT (17.9762774 59.4465286),340.3875,-1.690669047246482
267,58310322,15.366666666666664,13.5,14.2,,14.355555555555556,Kommunal,Botkyrka,Trädgårdsstadsskolan,Dymmelkärrsvägen 33,14650,Tullinge,http://www.botkyrka.se/tradgardsstadsskolan,J,17.9142944,59.22066709999999,3.4,POINT (17.9142944 59.22066709999999),335.43000000000006,0.9708371255966259
268,58338225,15.841666666666669,13.4,14.566666666666668,,14.60277777777778,Kommunal,Vaxholm,Rindö skola,Rindövägen 81,18541,Vaxholm,http://www.vaxholm.se,J,18.4356309,59.3953699,5.0,POINT (18.4356309 59.3953699),324.1333333333334,1.4879730422128805
269,58385274,14.033333333333331,9.8,12.625,13.9,12.589583333333332,Kommunal,Salem,Skogsängsskolan,Säbytorgsvägen 18-20,14442,Rönninge,https://www.salem.se/barn--utbildning/grundskola/grundskolor/skogsangsskolan/,J,17.7588442,59.19639960000001,2.8,POINT (17.7588442 59.19639960000001),347.97142857142853,-1.0947901558194388
270,58862351,14.683333333333335,9.366666666666664,12.183333333333332,,12.077777777777778,Kommunal,Tyresö,Bergfotens skola,Bergfotensvängen 2,13537,Tyresö,http://www.tyreso.se,J,18.2196536,59.23703459999999,4.1,POINT (18.2196536 59.23703459999999),316.51,-0.854881009401419
271,59249600,15.275,13.3,13.783333333333331,8.45,12.702083333333334,Kommunal,Stockholm,Eriksdalsskolan,Ringvägen 58-66,11861,Stockholm,https://grundskola.stockholm/hitta-grundskola/grundskola/eriksdalsskolan-f-9/,J,18.0633164,59.3081341,4.0,POINT (18.0633164 59.3081341),364.9805555555556,-1.3886928972803023
272,59266692,18.2375,15.5,14.925,,16.22083333333333,Enskild,Sollentuna,Vittra Rösjötorp,Lomvägen 100,19256,Sollentuna,http://www.vittra.se/rosjotorp,J,17.9941079,59.43609499999999,3.4,POINT (17.9941079 59.43609499999999),429.9111111111111,0.5786573273532074
273,59457803,,,4.8,,4.8,Enskild,Österåker,Helleborusskolan Österåker,Luffarbacken 5,18439,Åkersberga,http://www.helleborusskolan.se,J,18.3072057,59.479277,3.4,POINT (18.3072057 59.479277),335.2727272727273,-8.580960678748045
274,59468219,14.966666666666669,10.3,13.7,9.6,12.141666666666667,Kommunal,Stockholm,Slättgårdsskolan,Vårholmsbackarna 100,12744,Skärholmen,https://grundskola.stockholm/hitta-grundskola/grundskola/slattgardsskolan-f-9/,J,17.9398234,59.2910073,3.2,POINT (17.9398234 59.2910073),303.53076923076924,-0.4808765589324988
275,59848694,17.683333333333334,15.2,16.208333333333332,,16.36388888888889,Enskild,Danderyd,Danderyds Montessoriskola,Vendevägen 94,18232,Danderyd,http://www.dmskola.se,J,18.0438952,59.3946599,5.0,POINT (18.0438952 59.3946599),392.04,1.626575512959528
276,59900714,15.983333333333334,11.25,12.358333333333334,,13.197222222222225,Enskild,Stockholm,Vittra Södermalm,Sandbacksgatan 10,11621,Stockholm,http://www.vittra.se/sodermalm,J,18.0826347,59.31697449999999,3.3,POINT (18.0826347 59.31697449999999),362.0731707317073,-0.8240872354055728
277,59975651,14.891666666666666,12.133333333333333,14.683333333333332,,13.902777777777777,Kommunal,Norrtälje,Svanbergaskolan,Sjöhagavägen,76173,Norrtälje,https://www.norrtalje.se/info/barn-och-skola/grundskola/grundskolor/svanberga-skola/,J,18.6601876,59.8414375,4.0,POINT (18.6601876 59.8414375),299.65,1.372958608847327
278,60131588,17.425,15.5,15.699999999999998,,16.208333333333332,Kommunal,Lidingö,Sticklinge skola,Forellbacken 1,18130,Lidingö,https://www.lidingo.se/sticklingeskola,J,18.1175397,59.3829031,3.0,POINT (18.1175397 59.3829031),482.5,-0.6903603431168825
279,60211862,13.091666666666669,9.2,11.1,,11.130555555555556,Enskild,Upplands Väsby,Vikskolan,Viravägen 4,19455,Upplands Väsby,http://www.magnetica.se,J,17.9407478,59.5323205,2.4,POINT (17.9407478 59.5323205),328.52000000000004,-2.089060753282446
280,60308449,17.974999999999998,15.2,15.725,,16.3,Enskild,Stockholm,Filosofiska,Horisontvägen 22-24,12834,Skarpnäck,http://www.filosofiska.nu,J,18.1237696,59.2669509,5.0,POINT (18.1237696 59.2669509),329.5533333333334,3.0556940348438673
281,60382920,10.975,10.166666666666666,,5.683333333333334,8.941666666666666,Kommunal,Stockholm,Rågsveds grundskola,Rågsveds skolgränd 8,12465,Bandhagen,https://grundskola.stockholm/hitta-grundskola/grundskola/ragsveds-grundskola-f-6/,J,18.0243118,59.25794980000001,3.9,POINT (18.0243118 59.25794980000001),292.2578947368421,-3.4115313360558908
282,60570294,14.35,12.933333333333332,13.975,7.883333333333333,12.285416666666666,Kommunal,Södertälje,Brunnsängskolan,Häradsvägen 8,15248,Södertälje,http://www.sodertalje.se/brunnsangskolan,J,17.6372078,59.2123104,3.8,POINT (17.6372078 59.2123104),293.17142857142863,-0.08960859709872437
283,60904587,17.933333333333334,12.433333333333335,13.35,,14.572222222222225,Enskild,Tyresö,Internationella Engelska Skolan Tyresö,Bollmoragårdsväg 14,13539,Tyresö,http://www.engelska.se,N,18.2200742,59.2475405,2.6,POINT (18.2200742 59.2475405),341.0,1.0544185803033024
284,61043089,15.2,14.6,14.45,,14.75,Kommunal,Solna,Ekensbergsskolan,Ekensbergsvägen 89,16931,Solna,http://www.solna.se,J,17.9866632,59.36097339999999,4.1,POINT (17.9866632 59.36097339999999),362.7689655172413,0.7120657674146713
285,61056172,13.658333333333331,10.466666666666669,13.891666666666666,9.666666666666666,11.920833333333333,Kommunal,Sigtuna,Centralskolan,Skolgatan 3-5,19534,Märsta,http://www.sigtuna.se/centralskolan,J,17.852605,59.6241497,2.2,POINT (17.852605 59.6241497),281.1909090909091,-0.1679387931868508
286,61061763,14.1375,11.75,13.9875,9.575,12.3625,Kommunal,Upplands-Bro,Finnstaskolan,Blomstervägen 2,19731,Bro,http://www.upplands-bro.se/barn-och-utbildning/barn-och-unga-6-16-ar/kommunala-skolor/finnstaskolan.html,J,17.6468598,59.51544129999999,3.3,POINT (17.6468598 59.51544129999999),297.3666666666667,-0.1127629928726428
287,61686233,16.45,13.5,14.033333333333331,,14.661111111111111,Kommunal,Stockholm,Rålambshovsskolan,Gjörwellsgatan 13,11260,Stockholm,https://grundskola.stockholm/hitta-grundskola/grundskola/ralambshovsskolan-7-9/,J,18.020025,59.32912659999999,3.2,POINT (18.020025 59.32912659999999),403.0545454545454,-0.3393751762116395
288,62288230,13.375,10.500000000000002,13.475,8.625,11.49375,Kommunal,Södertälje,Lina grundskola,Vatt-Annas väg 5-7,15155,Södertälje,http://www.sodertalje.se/linagrundskola,J,17.5883553,59.2109546,4.3,POINT (17.5883553 59.2109546),213.0666666666667,1.032685098371088
289,62544265,16.966666666666665,14.0,15.85,,15.605555555555554,Enskild,Stockholm,Fria Maria Barnskola,Fatburskvarngata 28-30,11864,Stockholm,http://www.friamaria.com,J,18.0612359,59.31287559999999,3.5,POINT (18.0612359 59.31287559999999),362.9951219512195,1.5622177184904942
290,62862066,17.137500000000003,14.4,15.35,,15.629166666666668,Kommunal,Sollentuna,Helenelundsskolan,Sollentunavägen 68,19140,Sollentuna,http://www.sollentuna.se/sv/uweb/helenelundsskolan/,J,17.9649113,59.41497289999999,4.2,POINT (17.9649113 59.41497289999999),416.40999999999997,0.3095756218925896
291,63300625,17.10833333333333,14.733333333333334,15.75,,15.863888888888887,Kommunal,Sundbyberg,Duvboskolan,Alms väg 9,17276,Sundbyberg,http://www.sundbyberg.se/duvboskolan,J,17.955671,59.3724277,4.5,POINT (17.955671 59.3724277),348.75909090909096,2.1606956135313222
292,63321041,16.849999999999998,14.833333333333334,15.033333333333331,,15.57222222222222,Kommunal,Stockholm,Kungliga Svenska Balettskolan,"Söder Mälarstrand 39, 7 tr",11825,Stockholm,http://www.kungligasvenskabalettskolan.se/grundskolan,N,18.0519115,59.320685,4.1,POINT (18.0519115 59.320685),381.62,1.0838761548427946
293,63329692,14.6125,11.85,13.675,,13.379166666666668,Kommunal,Stockholm,Sörgårdsskolan,Tenorgränd 5,16247,Vällingby,https://grundskola.stockholm/hitta-grundskola/grundskola/sorgardsskolan-f-6/,J,17.8564887,59.3838566,3.7,POINT (17.8564887 59.3838566),379.15,-1.050163157707157
294,63542436,15.008333333333333,11.233333333333334,12.683333333333332,,12.975,Kommunal,Sigtuna,Sätunaskolan,Södergatan 57,19547,Märsta,http://www.sigtuna.se/satunaskolan,J,17.8564437,59.63136220000001,3.9,POINT (17.8564437 59.63136220000001),292.88571428571424,0.6068013693179672
295,63581692,17.416666666666668,17.166666666666668,16.058333333333334,,16.880555555555556,Kommunal,Danderyd,Enebybergs skola,Gethagsvägen 13,18247,Enebyberg,https://www.danderyd.se/skolor/enebybergs-skola/,J,18.0467074,59.4329775,4.1,POINT (18.0467074 59.4329775),398.68888888888887,1.9843788426286668
296,63954028,17.0,13.533333333333331,14.433333333333332,,14.988888888888887,Enskild,Stockholm,Kunskapsskolan Fruängen,Ellen Keys gata 2-4,12952,Hägersten,https://www.kunskapsskolan.se,N,17.9653272,59.2880024,3.9,POINT (17.9653272 59.2880024),363.585,0.931456968313503
297,64065082,19.0,16.733333333333334,16.10833333333333,,17.280555555555555,Enskild,Stockholm,Fredrikshovs slotts skola,Fredrikshovsgatan 6,11523,Stockholm,http://www.fredrikshov.se,J,18.0941482,59.33323970000001,4.0,POINT (18.0941482 59.33323970000001),389.29600000000005,2.6088051637587277
298,64081877,16.59166666666667,15.333333333333334,14.533333333333331,,15.486111111111112,Kommunal,Huddinge,Snättringeskolan,Häradsvägen 33,14143,Huddinge,http://www.huddinge.se/snattringeskolan,J,17.9841683,59.2546872,3.9,POINT (17.9841683 59.2546872),394.8636363636364,0.6813319822279809
299,64285853,16.691666666666666,13.766666666666666,15.275,,15.244444444444444,Kommunal,Nacka,Saltsjö-Duvnäs skola,Duvnäsvägen 38,13150,Saltsjö-Duvnäs,http://www.duvnas.nacka.se,J,18.2005373,59.3056252,3.5,POINT (18.2005373 59.3056252),402.2,0.2643759960709975
300,64736967,16.991666666666664,15.466666666666669,14.591666666666669,,15.683333333333332,Enskild,Stockholm,Västbergaskolan,Klensmedsvägen 2,12638,Hägersten,http://www.vastbergaskolan.se,J,17.998777,59.2948493,3.6,POINT (17.998777 59.2948493),346.88823529411764,2.0248408148995125
301,64836806,15.933333333333332,12.133333333333333,15.175000000000002,,14.41388888888889,Kommunal,Södertälje,Vallaskolan,Sandviksvägen 60,15161,Enhörna,http://www.sodertalje.se/vallaskolan,J,17.4816968,59.2555312,5.0,POINT (17.4816968 59.2555312),361.25,0.4122476271872202
302,64949601,10.6,9.133333333333336,,7.625,9.119444444444444,Kommunal,Huddinge,Vårbyskolan,Vårby Allé 26-30,14145,Vårby,http://www.huddinge.se/varbyskolan,J,17.8828632,59.2644853,2.5,POINT (17.8828632 59.2644853),236.475,-1.9009208168427953
303,65487837,18.166666666666668,13.633333333333336,15.391666666666666,,15.730555555555556,Enskild,Stockholm,Futuraskolan International Stockholm,Erik Dahlbergsgatan 58-62,11557,Stockholm,http://www.futuraskolan.se,J,18.093383,59.34859540000001,3.5,POINT (18.093383 59.34859540000001),371.408,1.4862070078413847
304,65717061,14.141666666666666,11.8,13.291666666666666,,13.077777777777776,Kommunal,Nynäshamn,Gröndalsskolan F-9,Idunvägen 23,14931,Nynäshamn,http://www.nynashamn.se/grondalsskolan,J,17.9370879,58.9015293,,POINT (17.9370879 58.9015293),293.05555555555554,0.7055210929850819
305,65839656,16.400000000000002,14.633333333333333,13.825,,14.952777777777778,Enskild,Täby,Byängsskolan,Marknadsvägen 299,18379,Täby,http://www.byangsskolan.se,J,18.0793159,59.449683,4.0,POINT (18.0793159 59.449683),365.85999999999996,0.8409887912761853
306,65927702,13.525,11.7,12.9625,,12.729166666666666,Enskild,Haninge,Innovitaskolan Vendelsö,Norrbyvägen 104,13673,Vendelsö,https://innovitaskolan.se/vendelso/,J,18.1786846,59.19776470000001,3.2,POINT (18.1786846 59.19776470000001),367.1166666666666,-1.41264812767988
307,66283082,16.6,14.8,14.45,,15.283333333333331,Kommunal,Stockholm,Hammarbyskolan Norra,Finn Malmgrens väg 5-7,12138,Johanneshov,https://grundskola.stockholm/hitta-grundskola/grundskola/hammarbyskolan-norra-f-6/,J,18.0984185,59.2953584,3.3,POINT (18.0984185 59.2953584),377.1769230769231,0.901146661656286
308,66455663,13.525,7.9,,9.025,10.15,Enskild,Stockholm,Engelska Skolan Novia,Sjöviksbacken 24-26,11743,Stockholm,https://www.engelskaskolannovia.se,J,18.0298647,59.30475389999999,2.4,POINT (18.0298647 59.30475389999999),371.58421052631576,-4.098558783844208
309,66475520,16.891666666666666,13.433333333333332,14.4,,14.908333333333331,Kommunal,Ekerö,Träkvista skola,Gräsåkersvägen 1,17836,Ekerö,http://www.ekero.se/trakvista,J,17.8005723,59.272307,1.9,POINT (17.8005723 59.272307),410.96666666666664,-0.2811989734810396
310,66634449,16.224999999999998,11.033333333333331,14.183333333333332,11.55,13.247916666666663,Enskild,Järfälla,Vittra Jakobsberg,Vibblabyvägen 5,17764,Järfälla,http://www.vittra.se/jakobsberg,J,17.8287402,59.4223312,3.3,POINT (17.8287402 59.4223312),291.74375,0.9070032350896629
311,66851849,17.575,15.766666666666666,15.450000000000005,,16.26388888888889,Kommunal,Stockholm,Olovslundsskolan,Gustav III:s väg 59-61,16772,Bromma,https://grundskola.stockholm/hitta-grundskola/grundskola/olovslundsskolan-f-6/,J,17.9389198,59.3321828,3.3,POINT (17.9389198 59.3321828),419.81999999999994,0.8628219782649751
312,67662754,14.7,9.8,11.75,,12.083333333333334,Enskild,Stockholm,Vittra Telefonplan,Snickerigatan 4,12626,Hägersten,http://www.vittra.se/telefonplan,J,17.9902019,59.2995001,2.7,POINT (17.9902019 59.2995001),359.52,-1.8769726650486245
313,67731691,13.125,8.1,10.325,,10.516666666666667,Enskild,Stockholm,Lunaskolan Södra,Karlsövägen 7-9 (B-huset),12155,Johanneshov,https://www.up.se/lunaskolansodra/,N,18.1110458,59.2860581,3.3,POINT (18.1110458 59.2860581),361.6368421052631,-3.494217496933384
314,67742754,14.233333333333334,7.5,10.5,4.783333333333333,9.254166666666666,Kommunal,Botkyrka,Karsby International School,Tomtbergavägen 370,14571,Norsborg,http://www.botkyrka.se/karsbyinternationalschool,J,17.8110757,59.24482459999999,3.3,POINT (17.8110757 59.24482459999999),226.96999999999997,-1.5390935785200774
315,67788311,15.5,13.666666666666666,14.383333333333333,,14.516666666666666,Enskild,Sundbyberg,Noblaskolan Sundbyberg,Marieborgsgatan 12,17446,Sundbyberg,https://noblaskolan.se/sundbyberg/,J,17.9534722,59.3854846,2.9,POINT (17.9534722 59.3854846),312.61428571428576,1.6770890215790075
316,67809355,14.683333333333332,11.8,14.075,,13.519444444444446,Enskild,Norrtälje,Innovitaskolan Norrtälje,Baldersbåge 2,76154,Norrtälje,https://innovitaskolan.se/norrtalje/,J,18.6927596,59.7725159,4.0,POINT (18.6927596 59.7725159),302.06,0.9320426254558996
317,68403656,17.099999999999998,13.1,16.225,,15.475,Enskild,Upplands Väsby,"Sverigefinska sk, Uppl Väsby",Ryttargatan 275,19471,Upplands Väsby,http://www.sprakskolanvasby.se,J,17.9082956,59.50733760000001,4.4,POINT (17.9082956 59.50733760000001),307.6125,2.7549311003278145
318,68422076,14.1125,10.85,13.075,,12.679166666666664,Kommunal,Nykvarn,Björkestaskolan,Tjusarstigen 39,15530,Nykvarn,http://www.nykvarn.se,J,17.4336851,59.1728149,3.8,POINT (17.4336851 59.1728149),365.625,-1.4270074141238709
319,68602166,13.725,11.8,11.2,,12.241666666666667,Kommunal,Stockholm,Hammarbyskolan Södra,Paternostervägen 18-22,12149,Johanneshov,https://grundskola.stockholm/hitta-grundskola/grundskola/hammarbyskolan-sodra-f-9/,J,18.0978893,59.29063249999999,3.1,POINT (18.0978893 59.29063249999999),355.6681818181817,-1.6266070087065572
320,68812584,12.166666666666666,7.8,,9.583333333333334,9.85,Kommunal,Stockholm,Askebyskolan,Askebykroken 22,16370,Spånga,https://grundskola.stockholm/hitta-grundskola/grundskola/askebyskolan-f-6/,J,17.9265888,59.3916539,3.1,POINT (17.9265888 59.3916539),228.78421052631577,-0.986607568783656
321,68939834,18.133333333333333,16.2,16.46666666666667,,16.933333333333334,Enskild,Stockholm,Hillelskolan,Nybrogatan 19A,11439,Stockholm,http://www.hillel.nu,J,18.0767468,59.3352387,,POINT (18.0767468 59.3352387),392.34999999999997,2.1886130605085334
322,69043808,16.78333333333333,15.366666666666667,15.1,,15.75,Kommunal,Täby,Byleskolan,Bylegårdsvägen 20,18773,Täby,http://www.taby.se/byleskolan,J,18.0781234,59.4994081,3.1,POINT (18.0781234 59.4994081),441.5142857142858,-0.16941316064301937
323,69195602,15.6,13.1,14.2375,,14.3125,Kommunal,Sollentuna,Silverdalsskolan,Silverdalsvägen 12,19138,Sollentuna,http://www.sollentuna.se/sv/uweb/utbildning-silverdal/,J,17.9799799,59.40336079999999,3.5,POINT (17.9799799 59.40336079999999),421.9,-1.1382647994707344
324,69266159,13.933333333333332,10.333333333333334,13.325,9.825,11.854166666666668,Kommunal,Stockholm,Hjulsta grundskola F-9,Hjulsta Backar 6,16365,Spånga,https://grundskola.stockholm/hitta-grundskola/grundskola/hjulsta-grundskola-f-9/,J,17.8891467,59.3966431,4.2,POINT (17.8891467 59.3966431),229.77272727272728,0.9939402539472528
325,69329486,17.075,15.133333333333336,14.324999999999998,,15.511111111111113,Kommunal,Lidingö,Källängens skola,Källängsvägen 1,18143,Lidingö,https://www.lidingo.se/kallangensskola,N,18.1436278,59.37145699999999,2.7,POINT (18.1436278 59.37145699999999),400.0222222222222,0.5830767771285696
326,69895255,16.525000000000002,13.199999999999998,14.041666666666666,,14.588888888888889,Kommunal,Stockholm,Mariaskolan,Ringvägen 23,11853,Stockholm,https://grundskola.stockholm/hitta-grundskola/grundskola/mariaskolan-f-9/,J,18.0521512,59.315077,3.0,POINT (18.0521512 59.315077),373.74444444444447,0.2887151698781931
327,69909271,15.216666666666669,13.733333333333334,13.975,,14.308333333333335,Kommunal,Vaxholm,Resarö skola,Överbyvägen 1,18594,Vaxholm,http://www.vaxholm.se,J,18.3334851,59.4284415,4.0,POINT (18.3334851 59.4284415),471.56666666666666,-2.329127850460514
328,70089804,12.116666666666667,8.0,10.833333333333334,8.950000000000001,9.975,Kommunal,Stockholm,Loviselundsskolan,Beata Sparres gränd 16,16555,Hässelby,https://grundskola.stockholm/hitta-grundskola/grundskola/loviselundsskolan-f-6/,J,17.844791,59.3647955,2.9,POINT (17.844791 59.3647955),281.7411764705882,-2.126919783766013
329,70182130,12.775,9.5,12.1,,11.458333333333334,Kommunal,Norrtälje,Drottningdal skola,Roslagsbrovägen 193,76175,Norrtälje,http://www.norrtalje.se,J,18.7407529,59.8378476,3.5,POINT (18.7407529 59.8378476),296.9,-1.0057794921698306
330,70201551,16.5875,14.6,13.75,,14.979166666666666,Kommunal,Sollentuna,Gärdesskolan,Malla Silfverstolpes väg 2,19251,Sollentuna,http://www.sollentuna.se/sv/uweb/gardesskolan-med-forskolor/,J,17.9560902,59.44349339999999,4.2,POINT (17.9560902 59.44349339999999),353.6545454545454,1.1590052394558992
331,70329261,15.383333333333333,14.6,13.041666666666666,,14.341666666666669,Kommunal,Stockholm,Hägerstensåsens skola,Sedelvägen 30,12932,Hägersten,https://grundskola.stockholm/hitta-grundskola/grundskola/hagerstensasens-skola-f-6/,J,17.981899,59.296998,4.5,POINT (17.981899 59.296998),360.05909090909097,0.36848005286243435
332,70398560,15.125,12.0,14.266666666666666,,13.797222222222222,Kommunal,Stockholm,Kämpetorpsskolan,Kedjevägen 57 B,12641,Hägersten,https://grundskola.stockholm/hitta-grundskola/grundskola/kampetorpsskolan-f-9/,J,17.9956572,59.2838693,3.6,POINT (17.9956572 59.2838693),342.825,0.23581346148337268
333,70803136,14.925,13.4,13.825,,14.050000000000002,Kommunal,Värmdö,Kyrkskolan,Klockargården,13935,Värmdö,http://www.varmdo.se,J,18.5076955,59.35726400000001,4.5,POINT (18.5076955 59.35726400000001),288.6,1.7842008655682857
334,71048800,11.858333333333334,8.333333333333334,,9.291666666666666,9.827777777777778,Kommunal,Botkyrka,Borgskolan,Borgvägen 10,14568,Norsborg,http://www.botkyrka.se/borgskolan,J,17.8245956,59.24919879999999,3.0,POINT (17.8245956 59.24919879999999),235.2230769230769,-1.1626750152778786
335,71078874,15.958333333333334,14.2,14.075,,14.744444444444444,Kommunal,Tyresö,Fornuddens skola,Ängsvägen 8,13553,Tyresö,http://www.tyreso.se,J,18.1959735,59.2209945,4.5,POINT (18.1959735 59.2209945),387.09999999999997,0.12516355452628147
336,71677992,15.758333333333333,14.433333333333332,14.324999999999998,,14.838888888888889,Kommunal,Salem,Rönninge skola,Rönninge Skolväg 31,14462,Rönninge,https://www.salem.se/barn--utbildning/grundskola/grundskolor/Ronninge-skola/,J,17.7423769,59.18880960000001,4.2,POINT (17.7423769 59.18880960000001),383.74,0.29988920403097374
337,71992738,11.9,9.4,,9.941666666666666,10.41388888888889,Kommunal,Södertälje,Fornbackaskolan,Fornhöjdsvägen 4,15258,Södertälje,http://www.sodertalje.se/fornbackaskolan,J,17.6647102,59.1932799,3.9,POINT (17.6647102 59.1932799),296.18750000000006,-2.0332000203626617
338,72009890,16.587500000000002,12.75,14.974999999999998,,14.770833333333334,Kommunal,Stockholm,Lilla Adolf Fredriks skola,Dalagatan 18,11321,Stockholm,https://grundskola.stockholm/hitta-grundskola/grundskola/lilla-adolf-fredriks-skola-f-6/,J,18.0492903,59.3384946,3.4,POINT (18.0492903 59.3384946),417.1811320754716,-0.5671825365239211
339,72066571,17.233333333333334,11.199999999999998,12.816666666666668,11.025,13.06875,Enskild,Stockholm,Internationella Engelska Skolan Skärholmen,Storsätragränd 8,12739,Skärholmen,http://www.engelska.se,N,17.9186851,59.2809912,2.6,POINT (17.9186851 59.2809912),281.56666666666666,0.9709998166368567
340,72120589,14.075,10.233333333333333,9.925,10.266666666666667,11.125,Kommunal,Södertälje,Stålhamraskolan,Skogvaktarvägen 30,15133,Södertälje,http://www.sodertalje.se/stalhamraskolan,J,17.6215865,59.17806900000001,3.5,POINT (17.6215865 59.17806900000001),264.93333333333334,-0.5753263606938575
341,72248694,15.966666666666669,14.1,14.083333333333334,,14.716666666666669,Kommunal,Stockholm,Enskede skola,Stockholmsvägen 30,12262,Enskede,https://grundskola.stockholm/hitta-grundskola/grundskola/enskede-skola-f-9/,J,18.0846699,59.28313249999999,4.1,POINT (18.0846699 59.28313249999999),365.46190476190475,0.6143894555945497
342,72266104,14.308333333333332,10.333333333333334,12.408333333333331,,12.35,Kommunal,Haninge,Vendelsömalmsskolan,Henriksbergsvägen 1-5,13667,Vendelsö,http://haninge.se/forskola-och-skola/grundskola/,J,18.1774262,59.1817142,2.2,POINT (18.1774262 59.1817142),326.1090909090909,-0.812011937674642
343,72345466,14.283333333333331,8.666666666666666,,10.991666666666667,11.313888888888888,Kommunal,Stockholm,Kvarnbyskolan,Lillbybacken 3,16375,Spånga,https://grundskola.stockholm/hitta-grundskola/grundskola/kvarnbyskolan-f-6/,J,17.9331306,59.39057080000001,3.9,POINT (17.9331306 59.39057080000001),257.8454545454546,-0.2170852544204802
344,72370577,17.333333333333332,16.666666666666668,15.575,,16.525000000000002,Kommunal,Danderyd,Stocksundsskolan,Studievägen 4,18267,Stocksund,https://www.danderyd.se/skolor/stocksundsskolan-och-langangsskolan/,J,18.0468353,59.38766949999999,2.4,POINT (18.0468353 59.38766949999999),377.5833333333333,2.13310288036657
345,72378947,15.708333333333334,13.166666666666666,14.791666666666666,,14.555555555555555,Enskild,Vallentuna,Vallentuna Friskola,Tellusvägen 40,18636,Vallentuna,http://www.vallentunafriskola.se,N,18.0806732,59.5256862,3.8,POINT (18.0806732 59.5256862),357.4428571428571,0.6448791796895836
346,72392930,14.033333333333331,12.266666666666666,12.6,,12.966666666666669,Kommunal,Huddinge,Ängsnässkolan,Centralvägen 19,14200,Huddinge,http://www.huddinge.se/angsnasskolan,N,17.995183,59.23340690000001,3.3,POINT (17.995183 59.23340690000001),347.69166666666666,-0.7110224109253185
347,72471883,13.05,10.333333333333334,13.016666666666666,,12.133333333333333,Kommunal,Norrtälje,Länna skola,Länna skolväg 23,76111,Bergshamra,http://www.norrtalje.se,J,18.654644,59.63997999999999,,POINT (18.654644 59.63997999999999),298.45000000000005,-0.36781397664702986
348,72509254,15.175,10.8,13.8,,13.258333333333336,Enskild,Stockholm,Lunaskolan Bromma,Johannesfredsvägen 43,16868,Bromma,https://www.up.se/lunaskolanbromma/,J,17.9725852,59.347471,2.8,POINT (17.9725852 59.347471),358.0857142857143,-0.6677029669701824
349,72624886,18.391666666666666,14.9,13.375,12.9875,14.913541666666664,Enskild,Stockholm,Internationella Engelska Skolan Liljeholmen,Tellusborgsvägen 83,12629,Hägersten,http://www.engelska.se,N,18.0016404,59.2972485,3.4,POINT (18.0016404 59.2972485),358.2095238095238,0.984547158693692
350,72627865,15.233333333333334,12.766666666666666,13.308333333333332,,13.769444444444444,Kommunal,Stockholm,Alviksskolan,Tranebergsvägen 73,16745,Bromma,https://grundskola.stockholm/hitta-grundskola/grundskola/alviksskolan/,J,17.976004,59.33514699999999,3.6,POINT (17.976004 59.33514699999999),393.7181818181818,-1.0079660918045104
351,72672270,16.466666666666665,13.433333333333332,14.716666666666669,,14.872222222222222,Kommunal,Stockholm,Aspuddens skola,Blommensbergsvägen 166,12651,Hägersten,https://grundskola.stockholm/hitta-grundskola/grundskola/aspuddens-skola-f-9/,J,17.9965158,59.3093796,2.7,POINT (17.9965158 59.3093796),367.23333333333335,0.7276198860333043
